province_istat,name,partial_istat,cadastrial_code,postal_codes,population,area,latitude,longitude
001,Agliè,001,A074,10011,2562,13.1463,45.3634368,7.7685999
001,Airasca,002,A109,10060,3660,15.7393,44.9168832,7.4844311
001,Ala di Stura,003,A117,10070,467,46.3316,45.3151133,7.3043438
001,Albiano d'Ivrea,004,A157,10010,1637,11.7397,45.4338982,7.9491448
001,Almese,006,A218,10040,6331,17.8741,45.1176634,7.3951819
001,Alpette,007,A221,10080,240,5.6311,45.4099867,7.5785972
001,Alpignano,008,A222,10091,16501,11.9193,45.0944696,7.5242673
001,Andezeno,009,A275,10020,2036,7.4859,45.0358599,7.8699487
001,Andrate,010,A282,10010,474,9.309,45.528381,7.8738392
001,Angrogna,011,A295,10060,827,38.8781,44.8434461,7.2242923
001,Arignano,012,A405,10020,1072,8.1666,45.044028,7.9024464
001,Avigliana,013,A518,10051,12350,23.2173,45.0793571,7.3963234
001,Azeglio,014,A525,10010,1240,9.9528,45.4248665,7.9947706
001,Bairo,015,A584,10010,790,7.0859,45.3862534,7.756918
001,Balangero,016,A587,10070,3064,13.0065,45.2700324,7.5193095
001,Baldissero Canavese,017,A590,10080,530,4.5064,45.408408,7.7444444
001,Baldissero Torinese,018,A591,10020,3755,15.4046,45.0684227,7.8178077
001,Balme,019,A599,10070,105,62.7105,45.302297,7.218314
001,Banchette,020,A607,10010,3085,2.0289,45.4608553,7.8565637
001,Barbania,021,A625,10070,1570,12.8027,45.2905029,7.6305109
001,Bardonecchia,022,A651,10052,3044,132.203,45.0781688,6.7038239
001,Barone Canavese,023,A673,10010,556,3.9864,45.3277288,7.8705562
001,Beinasco,024,A734,10092,17464,6.7366,45.0220777,7.5791581
001,Bibiana,025,A853,10060,3378,18.5987,44.7975756,7.2897861
001,Bobbio Pellice,026,A910,10060,539,94.082,44.8077018,7.1179046
001,Bollengo,027,A941,10012,2098,14.2237,45.4733626,7.9453487
001,Borgaro Torinese,028,A990,10071,11827,11.1093,45.1519831,7.6578944
001,Borgiallo,029,B003,10080,582,6.9647,45.4168178,7.6677336
001,Borgofranco d'Ivrea,030,B015,10013,3555,13.419,45.5130128,7.858522
001,Borgomasino,031,B021,10031,773,12.3713,45.361555,7.9887996
001,Borgone Susa,032,B024,10050,2151,4.9616,45.1231397,7.241214
001,Bosconero,033,B075,10080,3066,10.9191,45.2685663,7.7650698
001,Brandizzo,034,B121,10032,8701,6.39,45.1776535,7.8414756
001,Bricherasio,035,B171,10060,4616,22.7583,44.8255775,7.3028877
001,Brosso,036,B205,10080,394,11.135,45.4927657,7.8033343
001,Brozolo,037,B209,10020,454,8.9471,45.1174194,8.0712784
001,Bruino,038,B216,10090,8489,5.5702,45.0202313,7.4676911
001,Brusasco,039,B225,10020,1490,14.3591,45.1559558,8.0600942
001,Bruzolo,040,B232,10050,1492,12.5597,45.1431255,7.1939769
001,Buriasco,041,B278,10060,1337,14.6868,44.873355,7.411923
001,Burolo,042,B279,10010,1105,5.476,45.4841252,7.9320566
001,Busano,043,B284,10080,1622,5.0591,45.3288398,7.6557436
001,Bussoleno,044,B297,10053,5652,37.0661,45.1372801,7.1493187
001,Buttigliera Alta,045,B305,10090,6304,8.0973,45.0670146,7.4367807
001,Cafasse,046,B350,10070,3310,10.2313,45.2447136,7.5181235
001,Caluso,047,B435,10014,7388,39.4924,45.307865,7.8915053
001,Cambiano,048,B462,10020,5900,14.1313,44.9734576,7.7793248
001,Campiglione Fenile,049,B512,10060,1330,11.0864,44.8021199,7.3250382
001,Candia Canavese,050,B588,10010,1209,9.1318,45.3281713,7.8866124
001,Candiolo,051,B592,10060,5610,11.8499,44.9602633,7.6012111
001,Canischio,052,B605,10080,286,11.9504,45.3743498,7.5952182
001,Cantalupa,053,B628,10060,2602,11.1953,44.9403073,7.3326039
001,Cantoira,054,B637,10070,596,23.0319,45.3432391,7.3816797
001,Caprie,055,B705,10040,2060,16.4077,45.1178654,7.3325065
001,Caravino,056,B733,10010,901,11.537,45.3986096,7.9602135
001,Carema,057,B762,10010,739,10.2591,45.5844545,7.8123043
001,Carignano,058,B777,10041,9052,50.6791,44.9066637,7.6753431
001,Carmagnola,059,B791,10022,28313,95.7163,44.8465448,7.7181575
001,Casalborgone,060,B867,10020,1855,20.1238,45.129963,7.9404405
001,Cascinette d'Ivrea,061,B953,10010,1524,2.1726,45.4784597,7.9046983
001,Caselette,062,B955,10040,3034,14.3141,45.1058811,7.4832072
001,Caselle Torinese,063,B960,10072,13834,23.5512,45.1771666,7.6481863
001,Castagneto Po,064,C045,10090,1763,11.5245,45.1606091,7.8869884
001,Castagnole Piemonte,065,C048,10060,2179,17.2795,44.8986165,7.5665563
001,Castellamonte,066,C133,10081,9695,38.7063,45.3833395,7.7098652
001,Castelnuovo Nigra,067,C241,10080,401,28.3756,45.4373279,7.6951142
001,Castiglione Torinese,068,C307,10090,6469,14.1346,45.1233094,7.8160937
001,Cavagnolo,069,C369,10020,2226,12.3286,45.1520751,8.0513102
001,Cavour,070,C404,10061,5374,48.9599,44.7840265,7.3752321
001,Cercenasco,071,C487,10060,1782,13.1596,44.8612571,7.5012581
001,Ceres,072,C497,10070,1017,28.0516,45.3130821,7.3893433
001,Ceresole Reale,073,C505,10080,159,99.8164,45.4326228,7.232541
001,Cesana Torinese,074,C564,10054,913,121.7006,44.9524088,6.7942278
001,Chialamberto,075,C604,10070,344,35.4479,45.3628633,7.3457007
001,Chianocco,076,C610,10050,1552,18.6132,45.1485865,7.1693934
001,Chiaverano,077,C624,10010,1985,12.0224,45.4994028,7.9031274
001,Chieri,078,C627,10023,1090,54.1967,45.0131517,7.8210716
001,Chiesanuova,079,C629,10080,3560,4.1187,45.4178128,7.6560592
001,Chiomonte,080,C639,10050,870,26.755,45.1193861,6.9833861
001,Chiusa di San Michele,081,C655,10050,1556,5.9167,45.1015471,7.3264449
001,Chivasso,082,C665,10034,26275,51.2027,45.1885564,7.8871395
001,Ciconio,083,C679,10080,364,3.1638,45.3303253,7.7598721
001,Cintano,084,C711,10080,240,4.9344,45.428055,7.686621
001,Cinzano,085,C715,10090,323,6.1965,45.0938984,7.9211215
001,Ciriè,086,C722,10073,18212,17.7329,45.2320252,7.6037821
001,Claviere,087,C793,10050,204,2.6871,44.9386158,6.7493064
001,Coassolo Torinese,088,C801,10070,1444,27.8788,45.3007164,7.4613293
001,Coazze,089,C803,10050,3218,56.5724,45.0514173,7.2946436
001,Collegno,090,C860,10093,48574,18.1075,45.0774011,7.5691295
001,Colleretto Castelnuovo,091,C867,10080,312,6.3321,45.4214111,7.6789816
001,Colleretto Giacosa,092,C868,10010,596,4.5895,45.4328929,7.7999643
001,Condove,093,C955,10055,4437,71.1129,45.1171436,7.3107299
001,Corio,094,D008,10070,3048,41.4917,45.3127462,7.5325615
001,Cossano Canavese,095,D092,10010,440,3.2387,45.3883351,7.9933732
001,Cuceglio,096,D197,10090,930,6.8709,45.3589326,7.8148439
001,Cumiana,097,D202,10040,7821,60.7335,44.9827939,7.3743768
001,Cuorgnè,098,D208,10082,9411,19.3083,45.3912313,7.6489149
001,Druento,099,D373,10040,8973,27.5394,45.1347332,7.5762042
001,Exilles,100,D433,10050,241,46.5473,45.0974909,6.9296242
001,Favria,101,D520,10083,5115,14.8499,45.3328504,7.6880143
001,Feletto,102,D524,10080,2190,7.8931,45.305494,7.7471079
001,Fenestrelle,103,D532,10060,481,49.4091,45.0342952,7.0518867
001,Fiano,104,D562,10070,727,12.0396,45.218123,7.5197835
001,Fiorano Canavese,105,D608,10010,735,4.3457,45.4675752,7.8289773
001,Foglizzo,106,D646,10090,2265,15.6429,45.2720198,7.8231787
001,Forno Canavese,107,D725,10084,3230,16.5002,45.3468407,7.5867804
001,Frassinetto,108,D781,10080,279,24.8186,45.4360373,7.6056789
001,Front,109,D805,10070,1613,10.9482,45.2795532,7.6655965
001,Frossasco,110,D812,10060,2799,20.1488,44.9336199,7.3507705
001,Garzigliana,111,D931,10060,530,7.4018,44.8367717,7.3747313
001,Gassino Torinese,112,D933,10090,9361,20.5108,45.1274531,7.8248966
001,Germagnano,113,D983,10070,1120,14.4442,45.2621833,7.4668644
001,Giaglione,114,E009,10050,592,33.383,45.1396886,7.0141385
001,Giaveno,115,E020,10094,16214,71.7379,45.0447522,7.3530865
001,Givoletto,116,E067,10040,4095,12.8199,45.1587801,7.4967729
001,Gravere,117,E154,10050,666,18.9872,45.1239188,7.0210728
001,Groscavallo,118,E199,10070,191,92.0935,45.3689574,7.2822951
001,Grosso,119,E203,10070,987,4.3296,45.2563694,7.5566335
001,Grugliasco,120,E216,10095,37090,13.1375,45.0621103,7.5778006
001,Ingria,121,E301,10080,42,14.7505,45.4662964,7.5708626
001,Inverso Pinasca,122,E311,10060,697,8.0293,44.9472274,7.215964
001,Isolabella,123,E345,10046,375,4.7718,44.9066417,7.9092678
001,Issiglio,124,E368,10080,409,5.5042,45.4468144,7.7541627
001,Ivrea,125,E379,10015,22604,30.1076,45.4661941,7.8759668
001,La Cassa,126,E394,10040,1773,12.0354,45.1818247,7.51913
001,La Loggia,127,E423,10040,8779,12.7929,44.9566759,7.6677072
001,Lanzo Torinese,128,E445,10074,4893,10.2876,45.2723224,7.4766155
001,Lauriano,129,E484,10020,1401,14.2901,45.1584557,7.9916695
001,Leini,130,E518,10040,16321,31.9192,45.1839381,7.7151076
001,Lemie,131,E520,10070,185,45.6752,45.2285585,7.2928817
001,Lessolo,132,E551,10010,1777,7.9365,45.4761616,7.8142197
001,Levone,133,E566,10070,443,5.3912,45.3181072,7.6059006
001,Locana,134,E635,10080,1339,132.5175,45.4169972,7.4612623
001,Lombardore,135,E660,10040,1670,12.7157,45.2357094,7.7362669
001,Lombriasco,136,E661,10040,1090,7.2095,44.8415984,7.6357788
001,Loranzè,137,E683,10010,1149,4.1914,45.4422362,7.810871
001,Luserna San Giovanni,139,E758,10062,7162,17.7414,44.8143175,7.2457908
001,Lusernetta,140,E759,10060,480,7.0398,44.8023618,7.250236
001,Lusigliè,141,E763,10080,541,5.2585,45.3185684,7.7664666
001,Macello,142,E782,10060,1155,14.1404,44.8511751,7.4007927
001,Maglione,143,E817,10030,419,6.3132,45.3477069,8.0117445
001,Marentino,144,E941,10020,1300,11.2599,45.0580041,7.8733297
001,Massello,145,F041,10060,57,38.2587,44.9585595,7.0563128
001,Mathi,146,F053,10075,3777,7.0703,45.2566436,7.5413209
001,Mattie,147,F058,10050,658,28.6942,45.1187055,7.1121519
001,Mazzè,148,F067,10035,4181,27.3281,45.298539,7.9370016
001,Meana di Susa,149,F074,10050,805,16.5438,45.1207336,7.0681407
001,Mercenasco,150,F140,10010,1291,12.6384,45.3569822,7.8825668
001,Mezzenile,152,F182,10070,736,29.0872,45.2924068,7.3950199
001,Mombello di Torino,153,F315,10020,387,4.0825,45.0463992,7.9195483
001,Mompantero,154,F318,10059,642,30.3331,45.1399072,7.0579733
001,Monastero di Lanzo,155,F327,10070,328,17.6554,45.3014274,7.4391322
001,Moncalieri,156,F335,10024,56193,47.5444,45.000924,7.6852479
001,Moncenisio,157,D553,10050,41,4.5006,45.2052902,6.9835609
001,Montaldo Torinese,158,F407,10020,736,4.6568,45.0663638,7.8508936
001,Montalenghe,159,F411,10090,970,6.4681,45.3377263,7.8398563
001,Montalto Dora,160,F420,10016,3304,7.3567,45.4936297,7.8637946
001,Montanaro,161,F422,10017,5118,20.9036,45.2328961,7.8528256
001,Monteu da Po,162,F651,10020,858,7.3897,45.1505427,8.0147845
001,Moriondo Torinese,163,F733,10020,853,6.4898,45.0390614,7.9440556
001,Nichelino,164,F889,10042,46458,20.6222,44.9951889,7.6473727
001,Noasca,165,F906,10080,107,78.0484,45.453056,7.3135435
001,Nole,166,F925,10076,1631,11.353,45.2452388,7.5701212
001,Nomaglio,167,F927,10010,283,3.0743,45.5351887,7.8597152
001,None,168,F931,10060,4703,24.6422,44.9323104,7.5412396
001,Novalesa,169,F948,10050,516,28.5543,45.1876373,7.0146657
001,Oglianico,170,G010,10080,1455,6.303,45.3425704,7.6927438
001,Orbassano,171,G087,10043,23044,22.2081,45.0070316,7.5369568
001,Orio Canavese,172,G109,10010,756,7.1541,45.3284928,7.8602996
001,Osasco,173,G151,10060,1153,5.4886,44.8494709,7.3431663
001,Osasio,174,G152,10040,936,4.5771,44.8694593,7.6075282
001,Oulx,175,G196,10056,3293,99.7859,45.0312711,6.8322188
001,Ozegna,176,G202,10080,1176,5.4058,45.3490184,7.7431342
001,Palazzo Canavese,177,G262,10010,839,5.0819,45.4574832,7.9780494
001,Pancalieri,178,G303,10060,1992,15.8885,44.8304699,7.5881618
001,Parella,179,G330,10010,292,2.6886,45.42999,7.7910274
001,Pavarolo,180,G387,10020,1148,4.4056,45.0689255,7.834758
001,Pavone Canavese,181,G392,10018,3635,11.5399,45.435266,7.853976
001,Pecetto Torinese,183,G398,10020,4046,9.1482,45.0195573,7.7486999
001,Perosa Argentina,184,G463,10063,3094,26.0905,44.958097,7.1923703
001,Perosa Canavese,185,G462,10010,525,4.708,45.3971612,7.8292559
001,Perrero,186,G465,10060,583,63.3937,44.9374546,7.1152671
001,Pertusio,187,G477,10080,752,4.0041,45.3534027,7.6387241
001,Pessinetto,188,G505,10070,608,5.3498,45.290546,7.4028471
001,Pianezza,189,G559,10044,15449,16.4634,45.1006232,7.5463576
001,Pinasca,190,G672,10060,2853,34.7185,44.9426596,7.2276729
001,Pinerolo,191,G674,10064,35440,50.3375,44.8873317,7.3320011
001,Pino Torinese,192,G678,10025,8333,21.8153,45.0435191,7.7721652
001,Piobesi Torinese,193,G684,10040,3818,19.6488,44.9330545,7.6119311
001,Piossasco,194,G691,10045,18087,40.1458,44.9906984,7.4627552
001,Piscina,195,G705,10060,3319,9.9033,44.9194615,7.4258975
001,Piverone,196,G719,10010,1302,11.0347,45.4475488,8.0071026
001,Poirino,197,G777,10046,10179,75.619,44.9211961,7.8436194
001,Pomaretto,198,G805,10063,971,8.5611,44.9550641,7.1822031
001,Pont Canavese,199,G826,10085,3087,19.0611,45.4207331,7.5935708
001,Porte,200,G900,10060,1079,4.4477,44.8875621,7.2679852
001,Pragelato,201,G973,10060,735,89.2018,45.0162744,6.9422934
001,Prali,202,G978,10060,249,72.6097,44.8904046,7.0490437
001,Pralormo,203,G979,10040,1899,29.846,44.8613542,7.9006632
001,Pramollo,204,G982,10065,222,22.4785,44.9045853,7.2116986
001,Prarostino,205,G986,10060,1255,10.5051,44.8658369,7.2697215
001,Prascorsano,206,G988,10080,726,6.2419,45.3676604,7.6157085
001,Pratiglione,207,G997,10080,458,7.8802,45.3536517,7.5960906
001,Quagliuzzo,208,H100,10010,333,2.0379,45.4264997,7.7818365
001,Quassolo,209,H120,10010,339,3.956,45.5249408,7.8324759
001,Quincinetto,210,H127,10010,992,17.7884,45.5608176,7.8057688
001,Reano,211,H207,10090,1753,6.6657,45.0517062,7.429554
001,Ribordone,212,H270,10080,49,43.6001,45.4316138,7.502419
001,Rivalba,213,H333,10090,1158,10.8333,45.1188065,7.8870447
001,Rivalta di Torino,214,H335,10040,20172,25.1076,45.0345441,7.5232926
001,Riva presso Chieri,215,H337,10020,4750,35.833,44.9862792,7.8691993
001,Rivara,216,H338,10080,2496,12.5839,45.3323186,7.6250614
001,Rivarolo Canavese,217,H340,10086,12280,32.246,45.3327982,7.7252212
001,Rivarossa,218,H344,10040,1548,10.8733,45.2512811,7.7171996
001,Rivoli,219,H355,10098,47481,29.5,45.070628,7.5339449
001,Robassomero,220,H367,10070,3052,8.5773,45.200084,7.5701592
001,Rocca Canavese,221,H386,10070,1667,14.191,45.3094102,7.578537
001,Roletto,222,H498,10060,1988,9.704,44.9252466,7.3306684
001,Romano Canavese,223,H511,10090,2642,11.2106,45.3913474,7.8679044
001,Ronco Canavese,224,H539,10080,293,96.2688,45.4994349,7.5456723
001,Rondissone,225,H547,10030,1849,10.6878,45.24679,7.9658163
001,Rorà,226,H554,10060,227,12.4078,44.7923004,7.1984925
001,Roure,227,H555,10060,765,59.3733,45.0010825,7.1290852
001,Rosta,228,H583,10090,5056,9.0649,45.0714196,7.4639672
001,Rubiana,229,H627,10040,2391,26.9371,45.1392048,7.3823984
001,Rueglio,230,H631,10010,788,15.1003,45.4678542,7.7558219
001,Salassa,231,H691,10080,1792,4.952,45.3595602,7.6893918
001,Salbertrand,232,H684,10050,605,38.3197,45.0723713,6.8836881
001,Salerano Canavese,233,H702,10010,458,2.1034,45.4564477,7.8499024
001,Salza di Pinerolo,234,H734,10060,74,15.6752,44.9405416,7.053245
001,Samone,235,H753,10010,544,2.4329,45.4492906,7.8456432
001,San Benigno Canavese,236,H775,10080,5999,22.2315,45.2239633,7.7826551
001,San Carlo Canavese,237,H789,10070,4010,20.9068,45.2481552,7.6101615
001,San Colombano Belmonte,238,H804,10080,358,3.3808,45.3814438,7.618451
001,San Didero,239,H820,10050,516,3.3037,45.1351631,7.215155
001,San Francesco al Campo,240,H847,10070,4847,14.9795,45.2255394,7.6556646
001,Sangano,241,H855,10090,3686,6.6512,45.0262347,7.4505386
001,San Germano Chisone,242,H862,10065,1691,15.8619,44.8987128,7.2408566
001,San Gillio,243,H873,10040,3217,8.8867,45.1420605,7.5338325
001,San Giorgio Canavese,244,H890,10090,2534,20.4051,45.3354473,7.7942594
001,San Giorio di Susa,245,H900,10050,987,19.7367,45.1284155,7.1775315
001,San Giusto Canavese,246,H936,10090,3261,9.613,45.3122172,7.8083334
001,San Martino Canavese,247,H997,10010,811,9.7933,45.3945985,7.8183624
001,San Maurizio Canavese,248,I024,10077,10228,17.3443,45.2191199,7.630753
001,San Mauro Torinese,249,I030,10099,18635,12.5489,45.1030953,7.7663283
001,San Pietro Val Lemina,250,I090,10060,1457,12.4441,44.9073254,7.3135553
001,San Ponso,251,I126,10080,248,2.1243,45.3508201,7.6675166
001,San Raffaele Cimena,252,I137,10090,3146,11.1226,45.1472256,7.8486967
001,San Sebastiano da Po,253,I152,10020,1861,16.5783,45.1664428,7.9534693
001,San Secondo di Pinerolo,254,I154,10060,3597,12.572,44.8665626,7.2986478
001,Sant'Ambrogio di Torino,255,I258,10057,4597,8.3684,45.0996877,7.3593131
001,Sant'Antonino di Susa,256,I296,10050,4064,9.7947,45.1070831,7.2735097
001,Santena,257,I327,10026,10531,16.1984,44.9496848,7.7731601
001,Sauze di Cesana,258,I465,10054,251,78.2773,44.9404442,6.8604972
001,Sauze d'Oulx,259,I466,10050,1043,17.3112,45.0280858,6.8582494
001,Scalenghe,260,I490,10060,3244,31.6768,44.888306,7.4979654
001,Scarmagno,261,I511,10010,802,8.0309,45.3858304,7.8407105
001,Sciolze,262,I539,10090,1463,11.3557,45.0950363,7.8776624
001,Sestriere,263,I692,10058,919,25.9159,44.9576468,6.8765512
001,Settimo Rottaro,264,I701,10010,473,6.0579,45.4049042,7.9922308
001,Settimo Torinese,265,I703,10036,46056,31.3902,45.1369893,7.7712401
001,Settimo Vittone,266,I702,10010,1491,23.2614,45.5481131,7.8317209
001,Sparone,267,I886,10080,928,29.6786,45.4133052,7.5442141
001,Strambinello,268,I969,10010,260,2.214,45.4232477,7.768662
001,Strambino,269,I970,10019,6080,22.4686,45.3845912,7.8806282
001,Susa,270,L013,10059,5940,10.988,45.1352513,7.0464196
001,Tavagnasco,271,L066,10010,745,8.675,45.5432265,7.8226103
001,Torino,272,L219,10121 10122 10123 10124 10125 10126 10127 10128 10129 10131 10132 10133 10134 10135 10136 10137 10138 10139 10141 10142 10143 10144 10145 10146 10147 10148 10149 10151 10152 10153 10154 10155 10156,848748,129.9988,45.073274,7.6806875
001,Torrazza Piemonte,273,L238,10037,3000,9.8239,45.2152115,7.9749012
001,Torre Canavese,274,L247,10010,620,5.4545,45.3918288,7.7605391
001,Torre Pellice,275,L277,10066,4591,21.0981,44.8207373,7.2239787
001,Trana,276,L327,10090,6311,16.4058,45.0370941,7.4173032
001,Traversella,278,L345,10080,319,39.36,45.5094155,7.7504099
001,Traves,279,L340,10070,486,10.4544,45.2705812,7.4297477
001,Trofarello,280,L445,10028,10580,12.3476,44.9859626,7.7403033
001,Usseaux,281,L515,10060,178,37.9669,45.0484973,7.0268735
001,Usseglio,282,L516,10070,195,98.5378,45.2327269,7.2172202
001,Vaie,283,L538,10050,1389,7.2293,45.1018931,7.2866307
001,Val della Torre,284,L555,10040,3982,36.5262,45.1555656,7.4494114
001,Valgioie,285,L578,10094,976,9.1197,45.0760079,7.3396396
001,Vallo Torinese,286,L629,10070,780,6.0792,45.2235028,7.4992892
001,Valperga,287,L644,10087,2974,11.9095,45.3702749,7.656787
001,Valprato Soana,288,B510,10080,90,71.8553,45.52238,7.5489663
001,Varisella,289,L685,10070,850,22.5578,45.2098424,7.4890253
001,Vauda Canavese,290,L698,10070,1435,7.0929,45.2792452,7.6182078
001,Venaus,291,L726,10050,871,19.1436,45.1547026,7.0119477
001,Venaria Reale,292,L727,10078,32462,20.4469,45.1325378,7.6314973
001,Verolengo,293,L779,10038,4782,29.4607,45.1890505,7.9671578
001,Verrua Savoia,294,L787,10020,1341,31.9434,45.1565508,8.0931476
001,Vestignè,295,L811,10030,753,12.0691,45.3867057,7.9538786
001,Vialfrè,296,L830,10090,257,4.6453,45.380843,7.8181718
001,Vidracco,298,L857,10080,482,2.9677,45.4304595,7.7590151
001,Vigone,299,L898,10067,5086,41.1543,44.842352,7.4945243
001,Villafranca Piemonte,300,L948,10068,4562,50.7862,44.7812774,7.5045086
001,Villanova Canavese,301,L982,10070,1205,4.0307,45.2429376,7.5535404
001,Villarbasse,302,M002,10090,3500,10.4088,45.0448707,7.468001
001,Villar Dora,303,L999,10040,2795,5.7067,45.1178382,7.3838222
001,Villareggia,304,M004,10030,996,11.4096,45.3110147,7.9785
001,Villar Focchiardo,305,M007,10050,1955,25.6867,45.1097152,7.2266896
001,Villar Pellice,306,M013,10060,1047,60.293,44.8085876,7.1582795
001,Villar Perosa,307,M014,10069,3898,11.4231,44.9201904,7.249269
001,Villastellone,308,M027,10029,4472,19.8766,44.9215522,7.7453533
001,Vinovo,309,M060,10048,15154,17.6327,44.9487821,7.6342416
001,Virle Piemonte,310,M069,10060,1153,14.0573,44.8659384,7.5688908
001,Vische,311,M071,10030,1196,17.0748,45.3315726,7.9513803
001,Vistrorio,312,M080,10080,506,4.6818,45.441102,7.7694197
001,Viù,313,M094,10070,1023,84.1122,45.2389441,7.3764679
001,Volpiano,314,M122,10088,15199,32.4806,45.2019004,7.7755503
001,Volvera,315,M133,10040,8521,20.9827,44.9550226,7.5123049
001,Mappano,316,M316,10079,7369,9.8174,45.1508883,7.7038044
001,Val di Chy,317,M405,10039,1235,13.831,45.4620916,7.7731373
001,Valchiusa,318,M415,10089,1003,49.6268,45.5203549,7.7071179
002,Alagna Valsesia,002,A119,13021,730,133.1714,45.8533368,7.9381296
002,Albano Vercellese,003,A130,13030,310,13.7809,45.4251196,8.3805828
002,Alice Castello,004,A198,13040,2503,24.565,45.3665324,8.0746946
002,Arborio,006,A358,13031,830,23.3102,45.4960914,8.3889854
002,Asigliano Vercellese,007,A466,13032,1382,26.3155,45.2611784,8.4061942
002,Balmuccia,008,A600,13020,110,9.7885,45.8183577,8.1382562
002,Balocco,009,A601,13040,217,16.808,45.4555397,8.2810335
002,Bianzè,011,A847,13041,1841,41.8059,45.3073811,8.1200641
002,Boccioleto,014,A914,13022,163,33.8706,45.8299973,8.1132908
002,Borgo d'Ale,015,B009,13040,2223,39.5697,45.3499212,8.053727
002,Borgosesia,016,B041,13011,12189,41.0898,45.7167385,8.2764104
002,Borgo Vercelli,017,B046,13012,2260,19.2954,45.3571618,8.4663705
002,Buronzo,021,B280,13040,851,25.0767,45.4821244,8.2683343
002,Campertogno,025,B505,13023,221,34.1364,45.7986834,8.032167
002,Carcoforo,029,B752,13026,72,22.8002,45.9089017,8.0489014
002,Caresana,030,B767,13010,1057,24.1088,45.2210857,8.5064856
002,Caresanablot,031,B768,13030,1088,11.0218,45.3573559,8.3887727
002,Carisio,032,B782,13040,772,30.1058,45.4084654,8.198586
002,Casanova Elvo,033,B928,13030,222,16.205,45.3995339,8.2933068
002,San Giacomo Vercellese,035,B952,13030,277,9.6044,45.4974175,8.3253451
002,Cervatto,041,C548,13025,50,9.5379,45.8830922,8.162354
002,Cigliano,042,C680,13043,5336,25.3436,45.3095599,8.021489
002,Civiasco,043,C757,13010,234,7.3882,45.8066954,8.2927871
002,Collobiano,045,C884,13030,86,9.2231,45.3971293,8.3485358
002,Costanzana,047,D113,13033,761,20.9678,45.2361993,8.3700654
002,Cravagliana,048,D132,13020,268,34.8563,45.8473583,8.2011295
002,Crescentino,049,D154,13044,7636,48.2234,45.1923283,8.1025827
002,Crova,052,D187,13040,372,14.0163,45.3300408,8.2119299
002,Desana,054,D281,13034,1063,16.4768,45.2687361,8.3574505
002,Fobello,057,D641,13025,186,28.1401,45.8895691,8.1589187
002,Fontanetto Po,058,D676,13040,1053,23.2425,45.1933967,8.1917165
002,Formigliana,059,D712,13030,497,16.7627,45.4287819,8.2929105
002,Gattinara,061,D938,13045,7611,33.6666,45.617352,8.3712807
002,Ghislarengo,062,E007,13030,816,12.503,45.5293231,8.384323
002,Greggio,065,E163,13030,328,11.8819,45.4518081,8.3824755
002,Guardabosone,066,E237,13010,334,6.0876,45.7009478,8.2503224
002,Lamporo,067,E433,13046,506,9.644,45.2300833,8.0975502
002,Lenta,068,E528,13035,3449,18.9703,45.5555702,8.384448
002,Lignana,070,E583,13034,529,22.574,45.2852984,8.3460464
002,Livorno Ferraris,071,E626,13046,4180,57.9917,45.2816618,8.0819976
002,Lozzolo,072,E711,13045,797,6.667,45.6225953,8.3220794
002,Mollia,078,F297,13020,93,13.9178,45.8152932,8.0309665
002,Moncrivello,079,F342,13040,1376,20.1818,45.3312332,7.9958611
002,Motta de' Conti,082,F774,13010,741,11.7159,45.1915035,8.520771
002,Olcenengo,088,G016,13047,787,16.4959,45.3635979,8.3113898
002,Oldenico,089,G018,13030,217,6.5271,45.4023576,8.3827208
002,Palazzolo Vercellese,090,G266,13040,1105,13.9396,45.1845011,8.2328243
002,Pertengo,091,G471,13030,305,8.2949,45.2356219,8.417629
002,Pezzana,093,G528,13010,1271,17.3518,45.2620659,8.4842019
002,Pila,096,G666,13020,144,8.6903,45.7702581,8.0808151
002,Piode,097,G685,13020,188,13.5977,45.7697758,8.0530867
002,Postua,102,G940,13010,561,16.1781,45.7141971,8.2314962
002,Prarolo,104,G985,13012,708,11.5389,45.2822302,8.4793438
002,Quarona,107,H108,13017,3804,16.156,45.7598619,8.2654215
002,Quinto Vercellese,108,H132,13030,391,10.9026,45.3804833,8.3621848
002,Rassa,110,H188,13020,981,43.2703,45.7686363,8.0141933
002,Rimella,113,H293,13020,133,26.2705,45.9079532,8.1825922
002,Rive,115,H346,13030,13792,9.409,45.2125683,8.4183193
002,Roasio,116,H365,13060,2250,27.9151,45.6086313,8.2889284
002,Ronsecco,118,H549,13036,543,24.4754,45.2535053,8.2777719
002,Rossa,121,H577,13020,1005,11.8379,45.8335577,8.1256449
002,Rovasenda,122,H364,13040,912,29.2677,45.5367966,8.3136149
002,Salasco,126,H690,13040,207,12.1875,45.3252919,8.2637808
002,Sali Vercellese,127,H707,13040,99,8.7766,45.3093341,8.3296825
002,Saluggia,128,H725,13040,3777,31.598,45.2358358,8.0111381
002,San Germano Vercellese,131,H861,13047,1473,30.6403,45.3501865,8.2509496
002,Santhià,133,I337,13048,8109,53.129,45.3669258,8.1743501
002,Scopa,134,I544,13027,1702,22.5335,45.7917234,8.1131603
002,Scopello,135,I545,13028,372,18.2547,45.773683,8.0948415
002,Serravalle Sesia,137,I663,13037,4751,20.905,45.6861578,8.3114752
002,Stroppiana,142,I984,13010,1172,18.3141,45.2313972,8.4534773
002,Tricerro,147,L420,13038,680,12.2491,45.2337999,8.3251494
002,Trino,148,L429,13039,525,70.6058,45.1942074,8.2969005
002,Tronzano Vercellese,150,L451,13049,3318,44.7509,45.3427938,8.1746927
002,Valduggia,152,L566,13018,1875,28.4267,45.7263977,8.3278565
002,Varallo,156,L669,13019,6926,102.9738,45.8140503,8.2562118
002,Vercelli,158,L750,13100,45176,79.7747,45.3239845,8.4232343
002,Villarboit,163,M003,13030,386,25.5109,45.436658,8.336869
002,Villata,164,M028,13010,1550,14.5825,45.3856147,8.4326028
002,Vocca,166,M106,13020,157,20.2573,45.8309936,8.1875302
002,Alto Sermenza,170,M389,13029,145,60.3257,45.8766504,8.0290444
002,Cellio con Breia,171,M398,13024,940,17.2796,45.7607088,8.311747
003,Agrate Conturbia,001,A088,28010,1520,14.5362,45.6759896,8.5599266
003,Ameno,002,A264,28010,850,9.9965,45.7887932,8.4394275
003,Armeno,006,A414,28011,2110,31.5153,45.8219765,8.4391789
003,Arona,008,A429,28041,13675,15.1698,45.7604019,8.5594897
003,Barengo,012,A653,28010,730,19.4928,45.5747818,8.5120132
003,Bellinzago Novarese,016,A752,28043,9444,39.1788,45.5703104,8.6397311
003,Biandrate,018,A844,28061,1307,12.4537,45.4537873,8.4637055
003,Boca,019,A911,28010,1131,9.608,45.6782956,8.4087054
003,Bogogno,021,A929,28010,1297,8.4826,45.6671743,8.5344991
003,Bolzano Novarese,022,A953,28010,1149,3.3043,45.7628355,8.4441526
003,Borgolavezzaro,023,B016,28071,1956,21.0915,45.3183864,8.6992676
003,Borgomanero,024,B019,28021,21277,32.2544,45.698883,8.4629865
003,Borgo Ticino,025,B043,28040,5174,13.3812,45.6880765,8.6039222
003,Briga Novarese,026,B176,28010,2763,4.7479,45.7313926,8.4515914
003,Briona,027,B183,28072,1105,24.7563,45.5422061,8.4798193
003,Caltignaga,030,B431,28010,2504,22.3213,45.517092,8.5879148
003,Cameri,032,B473,28062,10660,39.9852,45.5010303,8.6622435
003,Carpignano Sesia,036,B823,28064,2470,14.6556,45.5353124,8.4183407
003,Casalbeltrame,037,B864,28060,991,16.0407,45.4362445,8.4683785
003,Casaleggio Novara,039,B883,28060,905,10.531,45.4863093,8.4926659
003,Casalino,040,B897,28060,1523,39.4893,45.357685,8.5227352
003,Casalvolone,041,B920,28060,875,17.4845,45.3994628,8.4643646
003,Castellazzo Novarese,042,C149,28060,316,10.7917,45.5139988,8.4887075
003,Castelletto sopra Ticino,043,C166,28053,9826,14.6413,45.7140591,8.6423732
003,Cavaglietto,044,C364,28010,381,6.4854,45.6028078,8.5009121
003,Cavaglio d'Agogna,045,C365,28010,1165,9.8334,45.6118196,8.482786
003,Cavallirio,047,C378,28010,1307,8.3261,45.664969,8.3967364
003,Cerano,049,C483,28065,6712,32.6335,45.4106786,8.7808551
003,Colazza,051,C829,28010,530,3.1617,45.7926355,8.4990851
003,Comignago,052,C926,28060,1209,4.4493,45.7152483,8.5651231
003,Cressa,055,D162,28012,1604,7.1035,45.648002,8.5074836
003,Cureggio,058,D216,28060,2576,8.5067,45.6751385,8.4613609
003,Divignano,060,D309,28010,1433,4.9346,45.6622872,8.6014953
003,Dormelletto,062,D347,28040,2561,7.2522,45.7301706,8.5731841
003,Fara Novarese,065,D492,28073,2007,9.2145,45.5551244,8.4591121
003,Fontaneto d'Agogna,066,D675,28010,2592,21.1702,45.639867,8.4845827
003,Galliate,068,D872,28066,15551,29.3663,45.4777007,8.6952726
003,Garbagna Novarese,069,D911,28070,1405,10.0494,45.3866548,8.6596796
003,Gargallo,070,D921,28010,1764,3.7697,45.7275134,8.4292154
003,Ghemme,073,E001,28074,3386,20.6439,45.5978178,8.420091
003,Gozzano,076,E120,28024,5487,12.5821,45.7475661,8.4346508
003,Granozzo con Monticello,077,E143,28060,1332,19.5209,45.3601442,8.5741367
003,Grignasco,079,E177,28075,4345,14.3336,45.6819106,8.3397089
003,Invorio,082,E314,28045,4308,17.3717,45.7559157,8.4867397
003,Landiona,083,E436,28064,537,7.2833,45.4969127,8.4221687
003,Lesa,084,E544,28040,636,13.5807,45.8301213,8.5648443
003,Maggiora,088,E803,28014,1609,10.6586,45.6907627,8.4209948
003,Mandello Vitta,090,E880,28060,228,5.8541,45.495238,8.4591859
003,Marano Ticino,091,E907,28040,1568,7.788,45.6298317,8.6319364
003,Massino Visconti,093,F047,28040,1124,6.8639,45.8219143,8.5388081
003,Meina,095,F093,28046,2372,7.5353,45.7900448,8.5376017
003,Mezzomerico,097,F188,28040,1203,7.7187,45.6202916,8.60462
003,Miasino,098,F191,28010,811,5.5209,45.8021998,8.430361
003,Momo,100,F317,28015,2393,23.5907,45.573919,8.5553705
003,Nebbiuno,103,F859,28010,1788,8.265,45.8060862,8.5242387
003,Nibbiola,104,F886,28070,825,11.3421,45.3717892,8.6563525
003,Novara,106,F952,28100,6648,103.0499,45.44589,8.6219159
003,Oleggio,108,G019,28047,14204,37.7945,45.596695,8.6373638
003,Oleggio Castello,109,G020,28040,2203,5.9352,45.7493254,8.5297117
003,Orta San Giulio,112,G134,28016,1131,6.65,45.7991727,8.4056846
003,Paruzzaro,114,G349,28040,2143,5.2272,45.7486966,8.5134575
003,Pella,115,G421,28010,543,8.1338,45.7970808,8.3831169
003,Pettenasco,116,G520,28028,1341,7.0708,45.8173318,8.4085751
003,Pisano,119,G703,28010,633,2.7659,45.7935586,8.5104372
003,Pogno,120,G775,28076,1350,9.8648,45.7566818,8.3830747
003,Pombia,121,G809,28050,2118,12.2967,45.6492746,8.6323887
003,Prato Sesia,122,H001,28077,1849,12.1259,45.6478829,8.3737739
003,Recetto,129,H213,28060,956,8.8525,45.4608115,8.4360882
003,Romagnano Sesia,130,H502,28078,3677,17.9757,45.6333577,8.3828761
003,Romentino,131,H518,28068,5625,17.6907,45.4626094,8.7208535
003,San Maurizio d'Opaglio,133,I025,28017,2994,8.5098,45.7724817,8.390958
003,San Nazzaro Sesia,134,I052,28060,731,11.4507,45.4381361,8.4235666
003,San Pietro Mosezzo,135,I116,28060,1971,34.8993,45.4556152,8.5434721
003,Sillavengo,138,I736,28064,556,9.5352,45.5204608,8.4405271
003,Sizzano,139,I767,28070,1360,10.7544,45.5773532,8.4373333
003,Soriso,140,I857,28010,719,6.3718,45.7422787,8.4093648
003,Sozzago,141,I880,28060,1088,12.9144,45.397822,8.7209774
003,Suno,143,L007,28019,2706,21.327,45.6311527,8.5409244
003,Terdobbiate,144,L104,28070,459,8.4632,45.3763568,8.695097
003,Tornaco,146,L223,28070,875,13.241,45.3573679,8.7179066
003,Trecate,149,L356,28069,20496,38.2225,45.4319091,8.7350555
003,Vaprio d'Agogna,153,L668,28010,967,10.0122,45.6035421,8.5540506
003,Varallo Pombia,154,L670,28040,4946,13.768,45.6667102,8.6330527
003,Vespolate,158,L808,28079,2015,17.7798,45.3494764,8.6690381
003,Vicolungo,159,L847,28060,826,13.2938,45.4788349,8.4613171
003,Vinzaglio,164,M062,28060,523,15.4635,45.3236585,8.5184053
003,Gattico-Veruno,166,M416,28013,5224,26.1871,45.7051751,8.5268411
004,Acceglio,001,A016,12021,157,151.5278,44.4757985,6.9912226
004,Aisone,002,A113,12010,205,36.9173,44.3134369,7.2208339
004,Alba,003,A124,12051,31095,53.5852,44.700916,8.035699
004,Albaretto della Torre,004,A139,12050,221,4.5899,44.5959075,8.0640823
004,Alto,005,A238,12070,142,7.4616,44.1082689,8.0036858
004,Argentera,006,A394,12010,78,76.2592,44.3795782,6.9693782
004,Arguello,007,A396,12050,199,4.9174,44.5829193,8.1106798
004,Bagnasco,008,A555,12071,973,30.9491,44.3020597,8.0425832
004,Bagnolo Piemonte,009,A571,12031,5817,63.2494,44.7598976,7.3154823
004,Baldissero d'Alba,010,A589,12040,1048,15.3263,44.7587078,7.9157493
004,Barbaresco,011,A629,12050,609,7.7636,44.7255426,8.0804646
004,Barge,012,A660,12032,7430,81.9913,44.7252145,7.3233938
004,Barolo,013,A671,12060,660,5.7095,44.6098752,7.9418082
004,Bastia Mondovì,014,A709,12060,628,12.0007,44.4413762,7.8933219
004,Battifollo,015,A716,12070,211,11.1195,44.3191594,8.0094814
004,Beinette,016,A735,12081,3441,17.6863,44.3656571,7.6457067
004,Bellino,017,A750,12020,95,62.07,44.5805979,7.0171607
004,Belvedere Langhe,018,A774,12060,337,5.003,44.4945561,7.9741677
004,Bene Vagienna,019,A779,12041,3643,48.9673,44.5452312,7.8328253
004,Benevello,020,A782,12050,467,5.4389,44.6281819,8.1059188
004,Bergolo,021,A798,12074,55,3.1118,44.5480034,8.183526
004,Bernezzo,022,A805,12010,4219,25.8633,44.3885948,7.4353103
004,Bonvicino,023,A979,12060,100,7.2409,44.5036111,8.0159202
004,Borgomale,024,B018,12050,386,8.4778,44.6204344,8.1327556
004,Borgo San Dalmazzo,025,B033,12011,12477,22.3398,44.3287485,7.4874639
004,Bosia,026,B079,12050,170,5.5405,44.6024594,8.1462032
004,Bossolasco,027,B084,12060,639,14.5453,44.5267822,8.0575028
004,Boves,028,B101,12012,9641,50.9483,44.3298085,7.5519949
004,Bra,029,B111,12042,466,59.5299,44.6981762,7.8547477
004,Briaglia,030,B167,12080,305,6.2376,44.395107,7.8769895
004,Briga Alta,031,B175,18025,40,52.1796,44.0832046,7.7507606
004,Brondello,032,B200,12030,261,10.124,44.6000492,7.4051372
004,Brossasco,033,B204,12020,,28.0638,44.570289,7.3604423
004,Busca,034,B285,12022,10127,76.7645,44.5136882,7.4735215
004,Camerana,035,B467,12072,575,23.6377,44.4226542,8.1407987
004,Canale,037,B573,12043,5514,17.8653,44.7972027,7.9914096
004,Canosio,038,B621,12020,79,48.4476,44.4553172,7.0813913
004,Caprauna,039,B692,12070,96,11.5018,44.1158086,7.9549407
004,Caraglio,040,B719,12023,6755,41.676,44.417706,7.427621
004,Caramagna Piemonte,041,B720,12030,3072,26.3283,44.7804298,7.7411759
004,Cardè,042,B755,12030,1437,19.3043,44.7441733,7.478216
004,Carrù,043,B841,12061,4382,25.838,44.4785823,7.8800643
004,Cartignano,044,B845,12020,175,6.4192,44.4770751,7.2876953
004,Casalgrasso,045,B894,12030,1412,17.8063,44.8194982,7.6249607
004,Castagnito,046,C046,12050,2184,7.1148,44.7564728,8.0301526
004,Casteldelfino,047,C081,12020,143,33.9514,44.5909638,7.0690319
004,Castelletto Stura,049,C165,12040,1349,17.1301,44.4442194,7.6390511
004,Castelletto Uzzone,050,C167,12070,310,14.8586,44.4925707,8.1859833
004,Castellinaldo d'Alba,051,C173,12050,915,7.8029,44.7753259,8.0315351
004,Castellino Tanaro,052,C176,12060,281,11.5394,44.4277639,7.9818872
004,Castelmagno,053,C205,12020,53,49.307,44.4091542,7.2123292
004,Castelnuovo di Ceva,054,C214,12070,102,6.2621,44.3532974,8.1301966
004,Castiglione Falletto,055,C314,12060,690,4.7202,44.6233304,7.9790348
004,Castiglione Tinella,056,C317,12053,811,11.634,44.7260407,8.1894313
004,Castino,057,C323,12050,458,15.5228,44.6169882,8.1812139
004,Cavallerleone,058,C375,12030,673,16.4378,44.7394377,7.6627358
004,Cavallermaggiore,059,C376,12030,5333,51.5948,44.7078515,7.687748
004,Celle di Macra,060,C441,12020,84,31.1053,44.4825618,7.1796736
004,Centallo,061,C466,12044,6875,42.485,44.5041151,7.5901488
004,Ceresole Alba,062,C504,12040,2006,37.0487,44.7995197,7.8205661
004,Cerretto Langhe,063,C530,12050,402,10.1423,44.5743318,8.0978397
004,Cervasca,064,C547,12010,5148,18.223,44.3831496,7.4678883
004,Cervere,065,C550,12040,2255,18.596,44.6347449,7.7931675
004,Ceva,066,C589,12073,5641,43.1656,44.3862246,8.0352173
004,Cherasco,067,C599,12062,9447,81.5352,44.6522187,7.8582036
004,Chiusa di Pesio,068,C653,12013,3548,95.0188,44.3247588,7.6778844
004,Cigliè,069,C681,12060,183,6.1219,44.4350586,7.9262261
004,Cissone,070,C738,12050,80,5.9034,44.5630956,8.0305096
004,Clavesana,071,C792,12060,799,17.1509,44.4821379,7.9119823
004,Corneliano d'Alba,072,D022,12040,2142,10.0872,44.7355335,7.9612917
004,Cortemilia,073,D062,12074,2188,24.9875,44.5808537,8.1918668
004,Cossano Belbo,074,D093,12054,901,20.5401,44.6690571,8.1985593
004,Costigliole Saluzzo,075,D120,12024,3295,15.3423,44.5646044,7.4849377
004,Cravanzana,076,D133,12050,377,8.1183,44.5731475,8.1281897
004,Crissolo,077,D172,12030,156,52.0529,44.699097,7.1571897
004,Cuneo,078,D205,12100,55557,119.669,44.3932857,7.5511719
004,Demonte,079,D271,12014,1853,127.3063,44.3152499,7.2975134
004,Diano d'Alba,080,D291,12055,3622,17.5432,44.6513852,8.027669
004,Dogliani,081,D314,12063,4553,35.6828,44.5300819,7.9451674
004,Dronero,082,D372,12025,6902,58.9575,44.4669688,7.3633182
004,Elva,083,D401,12020,82,26.2196,44.5397567,7.0896342
004,Entracque,084,D410,12010,770,160.7314,44.2407441,7.3978031
004,Envie,085,D412,12030,1954,24.9305,44.6817468,7.3721924
004,Farigliano,086,D499,12060,1698,16.4417,44.5116901,7.917021
004,Faule,087,D511,12030,464,7.0298,44.8054219,7.5806638
004,Feisoglio,088,D523,12050,295,7.6666,44.5433513,8.104176
004,Fossano,089,D742,12045,24242,130.1431,44.5493897,7.7248703
004,Frabosa Soprana,090,D751,12082,719,47.1437,44.2874616,7.8070923
004,Frabosa Sottana,091,D752,12083,1604,37.6433,44.3020134,7.7983106
004,Frassino,092,D782,12020,262,17.0106,44.5713491,7.2756444
004,Gaiola,093,D856,12010,574,4.9691,44.3352361,7.4067619
004,Gambasca,094,D894,12030,347,5.7412,44.6293666,7.3474145
004,Garessio,095,D920,12075,2881,131.2811,44.1972793,8.0298843
004,Genola,096,D967,12040,2587,13.7225,44.5876841,7.6627261
004,Gorzegno,097,E111,12070,255,13.9699,44.5118511,8.1351176
004,Gottasecca,098,E115,12070,130,13.6769,44.4616859,8.1672527
004,Govone,099,E118,12040,2255,18.9106,44.8048552,8.0999574
004,Grinzane Cavour,100,E182,12060,1987,3.8082,44.6565312,7.9822138
004,Guarene,101,E251,12050,3513,13.446,44.7377989,8.0336748
004,Igliano,102,E282,12060,1902,3.4042,44.443523,8.0125036
004,Isasca,103,E327,12020,2028,5.0784,44.5872868,7.3815478
004,Lagnasco,104,E406,12030,1395,17.7123,44.6246535,7.5553373
004,La Morra,105,E430,12064,2675,24.1658,44.6373388,7.9334641
004,Lequio Berria,106,E540,12050,432,11.8291,44.6045975,8.0976718
004,Lequio Tanaro,107,E539,12060,752,12.2005,44.5602244,7.883599
004,Lesegno,108,E546,12076,788,14.2197,44.4012231,7.9665059
004,Levice,109,E564,12070,204,15.739,44.5376509,8.1566196
004,Limone Piemonte,110,E597,12015,1402,70.8103,44.2012791,7.5760798
004,Lisio,111,E615,12070,191,8.2287,44.3066855,7.9796342
004,Macra,112,E789,12020,43,24.6562,44.4998498,7.179204
004,Magliano Alfieri,113,E809,12050,2173,9.5002,44.7664631,8.0678111
004,Magliano Alpi,114,E808,12060,2130,33.2204,44.4580908,7.7995525
004,Mango,115,E887,12056,1253,20.0309,44.6846084,8.1503312
004,Manta,116,E894,12030,3765,11.7345,44.6143247,7.4862618
004,Marene,117,E939,12030,3269,28.987,44.66149,7.7291517
004,Margarita,118,E945,12040,1429,11.3762,44.4026359,7.6868579
004,Marmora,119,E963,12020,54,41.1258,44.4574854,7.0944986
004,Marsaglia,120,E973,12060,214,13.0258,44.4521745,7.9829862
004,Martiniana Po,121,E988,12030,752,13.2806,44.6264098,7.3663153
004,Melle,122,F114,12020,298,27.9057,44.5620471,7.3205827
004,Moiola,123,F279,12010,218,15.0682,44.319679,7.3888721
004,Mombarcaro,124,F309,12070,250,20.5111,44.4677534,8.0850933
004,Mombasiglio,125,F312,12070,617,17.3495,44.363302,7.9699964
004,Monastero di Vasco,126,F326,12080,1259,17.4382,44.3401652,7.8227613
004,Monasterolo Casotto,127,F329,12080,80,7.6797,44.3308236,7.9411393
004,Monasterolo di Savigliano,128,F330,12030,1335,14.9114,44.6863291,7.6207698
004,Monchiero,129,F338,12060,585,4.9903,44.5730385,7.9181403
004,Mondovì,130,F351,12084,22015,87.0516,44.3871664,7.819806
004,Monesiglio,131,F355,12077,595,12.933,44.4648859,8.1163797
004,Monforte d'Alba,132,F358,12065,1954,25.2744,44.5823276,7.9684088
004,Montà,133,F385,12046,811,26.8196,44.8130871,7.9600148
004,Montaldo di Mondovì,134,F405,12080,530,23.5797,44.3194575,7.8658404
004,Montaldo Roero,135,F408,12040,862,11.8402,44.7685622,7.9244658
004,Montanera,136,F424,12040,714,11.6271,44.4619684,7.6655736
004,Montelupo Albese,137,F550,12050,480,6.4303,44.623061,8.0463848
004,Montemale di Cuneo,138,F558,12025,214,11.1041,44.4376846,7.3728143
004,Monterosso Grana,139,F608,12020,514,42.221,44.4088779,7.3239196
004,Monteu Roero,140,F654,12040,1634,24.6997,44.7802313,7.9308693
004,Montezemolo,141,F666,12070,225,6.9363,44.3782287,8.141467
004,Monticello d'Alba,142,F669,12066,2351,10.2359,44.7182847,7.9410088
004,Moretta,143,F723,12033,4078,23.9929,44.7639001,7.5369242
004,Morozzo,144,F743,12040,2000,22.1919,44.4230301,7.7104467
004,Murazzano,145,F809,12060,830,27.6758,44.473745,8.0188472
004,Murello,146,F811,12030,937,17.3282,44.7529544,7.6009425
004,Narzole,147,F846,12068,3493,26.1824,44.5941489,7.8705198
004,Neive,148,F863,12052,3328,21.3027,44.72631,8.1154993
004,Neviglie,149,F883,12050,367,7.9261,44.6921174,8.1159765
004,Niella Belbo,150,F894,12050,347,11.5183,44.5132813,8.0791207
004,Niella Tanaro,151,F895,12060,956,15.707,44.4148162,7.9213586
004,Novello,152,F961,12060,960,11.6853,44.5871493,7.9276554
004,Nucetto,153,F972,12070,393,7.8083,44.3393901,8.0589157
004,Oncino,154,G066,12030,87,47.3588,44.6764915,7.1902546
004,Ormea,155,G114,12078,1477,124.4931,44.1485801,7.9106908
004,Ostana,156,G183,12030,85,14.0874,44.6922117,7.1884822
004,Paesana,157,G228,12034,2637,58.2695,44.6854403,7.276558
004,Pagno,158,G240,12030,662,8.6798,44.6137374,7.429936
004,Pamparato,159,G302,12087,270,34.5116,44.2771135,7.9138511
004,Paroldo,160,G339,12070,195,12.4249,44.4316646,8.0713186
004,Perletto,161,G457,12070,260,9.8934,44.5989889,8.2140793
004,Perlo,162,G458,12070,108,10.2156,44.3330791,8.0836067
004,Peveragno,163,G526,12016,5494,67.9187,44.3300008,7.6171395
004,Pezzolo Valle Uzzone,164,G532,12070,310,26.5694,44.539268,8.1941101
004,Pianfei,165,G561,12080,2100,15.3102,44.3704795,7.7097584
004,Piasco,166,G575,12026,2696,10.6214,44.5685502,7.4574076
004,Pietraporzio,167,G625,12010,73,55.1857,44.3440005,7.0319433
004,Piobesi d'Alba,168,G683,12040,1403,4.0348,44.7349039,7.9785127
004,Piozzo,169,G697,12060,984,14.3043,44.5157538,7.8924222
004,Pocapaglia,170,G742,12060,3287,17.4774,44.7194539,7.8871859
004,Polonghera,171,G800,12030,1112,10.3146,44.8033469,7.5960731
004,Pontechianale,172,G837,12020,187,94.9229,44.6219829,7.0283117
004,Pradleves,173,G970,12027,241,19.2934,44.4185879,7.2820866
004,Prazzo,174,H011,12028,177,52.3851,44.4830668,7.0554308
004,Priero,175,H059,12070,525,19.8132,44.3766067,8.0924196
004,Priocca,176,H068,12040,2025,9.0304,44.7913025,8.0627276
004,Priola,177,H069,12070,658,27.3754,44.2459639,8.022424
004,Prunetto,178,H085,12077,409,14.3615,44.4894399,8.1443118
004,Racconigi,179,H150,12035,9622,48.0558,44.7678184,7.6759818
004,Revello,180,H247,12036,4193,52.4701,44.6546551,7.3890061
004,Rifreddo,181,H285,12030,1050,6.8436,44.6504913,7.349098
004,Rittana,182,H326,12010,109,11.352,44.3505597,7.4006354
004,Roaschia,183,H362,12010,95,23.8367,44.2701202,7.4561403
004,Roascio,184,H363,12073,91,6.4212,44.4171546,8.0225466
004,Robilante,185,H377,12017,2147,25.0038,44.2942177,7.511163
004,Roburent,186,H378,12080,476,29.8104,44.3049837,7.8902071
004,Roccabruna,187,H385,12020,1531,24.2988,44.4762859,7.3407474
004,Rocca Cigliè,188,H391,12060,125,7.0151,44.4440815,7.9511452
004,Rocca de' Baldi,189,H395,12047,1565,26.4023,44.4301673,7.7456979
004,Roccaforte Mondovì,190,H407,12088,2056,84.6107,44.3184143,7.745879
004,Roccasparvera,191,H447,12010,743,11.2406,44.3416448,7.441342
004,Roccavione,192,H453,12018,2636,19.1492,44.3143982,7.4812565
004,Rocchetta Belbo,193,H462,12050,155,4.5077,44.6371262,8.1752719
004,Roddi,194,H472,12060,1572,9.3529,44.6784469,7.9761077
004,Roddino,195,H473,12050,409,10.5849,44.5741003,8.0187358
004,Rodello,196,H474,12050,963,8.9004,44.6306059,8.0593158
004,Rossana,197,H578,12020,820,19.9166,44.5424915,7.4326069
004,Ruffia,198,H633,12030,364,7.5091,44.7072423,7.6024441
004,Sale delle Langhe,199,H695,12070,472,10.7295,44.397054,8.0834556
004,Sale San Giovanni,200,H704,12070,154,8.046,44.3993697,8.0786067
004,Saliceto,201,H710,12079,6002,24.3255,44.4132682,8.1667914
004,Salmour,202,H716,12040,716,12.6961,44.5781464,7.7921231
004,Saluzzo,203,H727,12037,2001,79.9307,44.6470162,7.4908476
004,Sambuco,204,H746,12010,86,46.1391,44.3373312,7.0778104
004,Sampeyre,205,H755,12020,988,98.9068,44.5793754,7.1888737
004,San Benedetto Belbo,206,H770,12050,151,4.8454,44.4898837,8.0578511
004,San Damiano Macra,207,H812,12029,414,54.2617,44.4884055,7.2563092
004,Sanfrè,208,H851,12040,3050,15.504,44.7521861,7.8035497
004,Sanfront,209,H852,12030,2289,39.7089,44.6458313,7.3202481
004,San Michele Mondovì,210,I037,12080,1810,18.112,44.3765173,7.9082487
004,Sant'Albano Stura,211,I210,12040,2357,27.4543,44.5099189,7.7210531
004,Santa Vittoria d'Alba,212,I316,12069,2874,10.0759,44.6965249,7.9331557
004,Santo Stefano Belbo,213,I367,12058,3823,27.1837,44.7074852,8.2310162
004,Santo Stefano Roero,214,I372,12040,1325,13.1141,44.7888149,7.9399096
004,Savigliano,215,I470,12038,21453,110.7878,44.6480119,7.6574792
004,Scagnello,216,I484,12070,174,9.3878,44.3322954,7.9867937
004,Scarnafigi,217,I512,12030,2149,30.498,44.6817494,7.5669268
004,Serralunga d'Alba,218,I646,12050,554,8.3908,44.6092145,8.0006134
004,Serravalle Langhe,219,I659,12050,300,8.8995,44.56091,8.057662
004,Sinio,220,I750,12050,478,8.6011,44.5994756,8.021561
004,Somano,221,I817,12060,310,11.6849,44.5358849,8.0114022
004,Sommariva del Bosco,222,I822,12048,6271,35.4153,44.7712808,7.7842659
004,Sommariva Perno,223,I823,12040,2694,17.0936,44.7431871,7.9055758
004,Stroppo,224,I985,12020,96,28.0957,44.5056334,7.1259127
004,Tarantasca,225,L048,12020,2166,12.2017,44.4934071,7.5450606
004,Torre Bormida,226,L252,12050,162,7.1828,44.5630946,8.1556107
004,Torre Mondovì,227,L241,12080,489,18.5376,44.3520291,7.9003514
004,Torre San Giorgio,228,L278,12030,744,5.39,44.7358156,7.5299411
004,Torresina,229,L281,12070,48,3.8226,44.4321989,8.0347641
004,Treiso,230,L367,12050,761,9.5956,44.6893676,8.0868493
004,Trezzo Tinella,231,L410,12050,303,10.5253,44.6769474,8.1075834
004,Trinità,232,L427,12049,2231,28.3367,44.5074601,7.7580358
004,Valdieri,233,L558,12010,912,153.3126,44.2776299,7.396136
004,Valgrana,234,L580,12020,808,23.1017,44.4095986,7.3806149
004,Valloriate,235,L631,12010,99,16.956,44.3381374,7.3745655
004,Venasca,237,L729,12020,1348,20.3938,44.5625348,7.394952
004,Verduno,238,L758,12060,562,7.1571,44.6681141,7.933767
004,Vernante,239,L771,12019,1104,62.0563,44.2455519,7.5337036
004,Verzuolo,240,L804,12039,6417,26.132,44.5995468,7.4831278
004,Vezza d'Alba,241,L817,12040,2352,14.0688,44.763895,7.996091
004,Vicoforte,242,L841,12080,3168,25.7363,44.3749448,7.8649884
004,Vignolo,243,L888,12010,2643,7.9416,44.3595471,7.4698938
004,Villafalletto,244,L942,12020,2859,29.7322,44.5442728,7.5388949
004,Villanova Mondovì,245,L974,12089,5819,28.2878,44.3444484,7.7620933
004,Villanova Solaro,246,L990,12030,735,14.7885,44.7296321,7.5760324
004,Villar San Costanzo,247,M015,12020,1541,19.4958,44.4829972,7.3802981
004,Vinadio,248,M055,12010,599,183.1693,44.307079,7.174339
004,Viola,249,M063,12070,359,21.0671,44.2904658,7.9662355
004,Vottignasco,250,M136,12020,497,8.0901,44.564807,7.5782137
005,Agliano Terme,001,A072,14041,1526,15.4485,44.7907,8.2511025
005,Albugnano,002,A173,14022,498,9.5399,45.0780173,7.9715283
005,Antignano,003,A312,14010,949,10.8608,44.8454381,8.1337873
005,Aramengo,004,A352,14020,565,11.4123,45.0997329,8.0019807
005,Asti,005,A479,14100,73723,151.3147,44.899126,8.2041426
005,Azzano d'Asti,006,A527,14030,384,6.4341,44.8746943,8.267659
005,Baldichieri d'Asti,007,A588,14011,,5.0628,44.906994,8.0911038
005,Belveglio,008,A770,14040,314,5.2796,44.8304829,8.3301043
005,Berzano di San Pietro,009,A812,14020,397,7.3426,45.0949077,7.9540495
005,Bruno,010,B221,14046,297,8.9007,44.790628,8.4402729
005,Bubbio,011,B236,14051,802,15.7622,44.6638362,8.293609
005,Buttigliera d'Asti,012,B306,14021,2496,19.1603,45.0225449,7.9505128
005,Calamandrana,013,B376,14042,1661,12.7887,44.7365437,8.3356275
005,Calliano Monferrato,014,B418,14031,1209,17.293,45.0062598,8.2573264
005,Calosso,015,B425,14052,1146,15.7151,44.7394711,8.2271856
005,Camerano Casasco,016,B469,14020,407,6.8876,44.9886577,8.0908805
005,Canelli,017,B594,14053,10181,23.4325,44.7198729,8.2882031
005,Cantarana,018,B633,14010,987,9.7297,44.9003807,8.0307246
005,Capriglio,019,B707,14014,306,5.0565,45.0042278,8.0081642
005,Casorzo Monferrato,020,B991,14032,610,12.6482,45.022816,8.3341398
005,Cassinasco,021,C022,14050,542,11.839,44.6886322,8.301661
005,Castagnole delle Lanze,022,C049,14054,3648,21.5649,44.7549126,8.1491783
005,Castagnole Monferrato,023,C047,14030,1152,17.3373,44.9614416,8.306092
005,Castel Boglione,024,C064,14040,572,11.8616,44.7206138,8.3811957
005,Castell'Alfero,025,C127,14033,2637,20.0884,44.9827081,8.2094452
005,Castellero,026,C154,14013,291,4.2882,44.9240028,8.0747486
005,Castelletto Molina,027,C161,14040,143,3.0656,44.750303,8.4328345
005,Castello di Annone,028,A300,14034,1809,23.1639,44.8787617,8.3136895
005,Castelnuovo Belbo,029,C226,14043,805,9.5499,44.8018094,8.4122613
005,Castelnuovo Calcea,030,C230,14040,692,8.204,44.7882102,8.2856362
005,Castelnuovo Don Bosco,031,C232,14022,3109,21.6065,45.0413409,7.9636245
005,Castel Rocchero,032,C253,14044,389,5.6277,44.7187915,8.4159658
005,Cellarengo,033,C438,14010,710,10.8477,44.865993,7.9450011
005,Celle Enomondo,034,C440,14010,452,5.5928,44.8566295,8.1229731
005,Cerreto d'Asti,035,C528,14020,222,3.9385,45.0497678,8.0367647
005,Cerro Tanaro,036,C533,14030,588,4.6674,44.8726668,8.3602087
005,Cessole,037,C583,14050,362,11.7778,44.6479857,8.2432015
005,Chiusano d'Asti,038,C658,14025,250,2.4171,44.9850527,8.1178076
005,Cinaglio,039,C701,14020,423,5.5045,44.9748418,8.1001665
005,Cisterna d'Asti,040,C739,14010,1224,10.7326,44.8261717,8.004821
005,Coazzolo,041,C804,14054,293,4.0491,44.7282092,8.1451412
005,Cocconato,042,C807,14023,1406,16.5225,45.0871815,8.0392394
005,Corsione,044,D046,14020,192,5.0824,45.0007454,8.1451364
005,Cortandone,045,D050,14013,311,5.0231,44.9596886,8.0575712
005,Cortanze,046,D051,14020,265,4.4766,45.0152236,8.0895934
005,Cortazzone,047,D052,14010,588,10.322,44.9795332,8.0619238
005,Cortiglione,048,D072,14040,536,8.4253,44.8230145,8.3585651
005,Cossombrato,049,D101,14020,518,5.3987,44.9941207,8.1375273
005,Costigliole d'Asti,050,D119,14055,5679,36.9431,44.7882167,8.180628
005,Cunico,051,D207,14026,437,6.7531,45.0404348,8.0972115
005,Dusino San Michele,052,D388,14010,1088,11.9251,44.9201841,7.9722814
005,Ferrere,053,D554,14012,1499,13.9271,44.8734007,7.9938552
005,Fontanile,054,D678,14044,493,8.1176,44.7533737,8.4221857
005,Frinco,055,D802,14030,762,7.2168,45.0055853,8.1753657
005,Grana Monferrato,056,E134,14031,523,5.8883,44.9980498,8.2991228
005,Grazzano Badoglio,057,E159,14035,577,10.4722,45.0389144,8.313557
005,Incisa Scapaccino,058,E295,14045,,20.7037,44.8083938,8.3809458
005,Isola d'Asti,059,E338,14057,1964,13.5026,44.8294713,8.1772147
005,Loazzolo,060,E633,14051,296,14.8216,44.6689613,8.2585255
005,Maranzana,061,E917,14040,230,4.3423,44.7597653,8.4768203
005,Maretto,062,E944,14018,380,4.9286,44.9443539,8.0342359
005,Moasca,063,F254,14050,514,4.1551,44.762545,8.2779396
005,Mombaldone,064,F308,14050,193,11.9591,44.5692293,8.3292041
005,Mombaruzzo,065,F311,14046,986,22.4302,44.7710213,8.4486667
005,Mombercelli,066,F316,14047,2109,14.2321,44.8169714,8.2944274
005,Monale,067,F323,14013,984,9.1104,44.9360941,8.0716409
005,Monastero Bormida,068,F325,14058,872,14.2062,44.6475161,8.3246203
005,Moncalvo,069,F336,14036,2745,17.4206,45.0513987,8.2634659
005,Moncucco Torinese,070,F343,14024,883,14.3288,45.0678824,7.9321561
005,Mongardino,071,F361,14040,863,6.8551,44.8488395,8.2186989
005,Montabone,072,F386,14040,311,8.5377,44.6985955,8.3903099
005,Montafia,073,F390,14014,927,14.497,44.9891936,8.0251525
005,Montaldo Scarampi,074,F409,14048,699,6.6348,44.8285962,8.2573903
005,Montechiaro d'Asti,075,F468,14025,1206,10.1408,45.0082137,8.1123822
005,Montegrosso d'Asti,076,F527,14048,2290,15.4191,44.8224078,8.2387429
005,Montemagno Monferrato,077,F556,14030,1053,16.0975,44.9840328,8.3240069
005,Nizza Monferrato,080,F902,14049,10094,30.3635,44.773614,8.3565029
005,Olmo Gentile,081,G048,14050,70,5.6168,44.5855501,8.247035
005,Passerano Marmorito,082,G358,14020,432,12.0261,45.0563933,8.0187926
005,Penango,083,G430,14030,445,9.5629,45.0332578,8.2501324
005,Piea,084,G593,14020,522,9.0013,45.0252897,8.0720897
005,Pino d'Asti,085,G676,14020,205,4.0821,45.0581925,7.986255
005,Piovà Massaia,086,G692,14026,581,11.0243,45.0544849,8.0509446
005,Portacomaro,087,G894,14037,1926,10.9995,44.9571107,8.2585123
005,Quaranti,088,H102,14040,150,2.8707,44.7510416,8.4490793
005,Refrancore,089,H219,14030,1579,13.2054,44.9375746,8.3427129
005,Revigliasco d'Asti,090,H250,14010,729,8.835,44.8587289,8.1583649
005,Roatto,091,H366,14018,368,6.4135,44.9514989,8.0266129
005,Robella,092,H376,14020,437,12.1823,45.1023322,8.100056
005,Rocca d'Arazzo,093,H392,14030,909,12.5632,44.8738739,8.2858155
005,Roccaverano,094,H451,14050,368,29.9829,44.5929831,8.2719314
005,Rocchetta Palafea,095,H466,14042,342,7.8379,44.7069446,8.345724
005,Rocchetta Tanaro,096,H468,14030,1367,15.911,44.8588644,8.3443271
005,San Damiano d'Asti,097,H811,14015,8075,47.8661,44.8346357,8.065231
005,San Giorgio Scarampi,098,H899,14059,97,6.1477,44.6113127,8.2420238
005,San Martino Alfieri,099,H987,14010,660,7.2095,44.8185157,8.109371
005,San Marzano Oliveto,100,I017,14050,989,9.6838,44.7532191,8.2961627
005,San Paolo Solbrito,101,I076,14010,1160,11.869,44.952267,7.9727807
005,Scurzolengo,103,I555,14030,516,5.3426,44.9657062,8.2782601
005,Serole,104,I637,14050,102,12.3286,44.5537462,8.2597238
005,Sessame,105,I678,14058,239,8.4474,44.6689341,8.3378293
005,Settime,106,I698,14020,559,6.6806,44.9640872,8.112892
005,Soglio,107,I781,14020,135,3.2847,44.9974294,8.0781248
005,Tigliole,108,L168,14016,1703,16.1208,44.8872714,8.0754687
005,Tonco,109,L203,14039,774,11.7831,45.0241068,8.189842
005,Vaglio Serra,111,L531,14049,276,4.7598,44.796531,8.3389334
005,Valfenera,112,L574,14017,2416,22.0381,44.8968709,7.9650986
005,Vesime,113,L807,14059,592,13.1652,44.6371886,8.2282253
005,Viale,114,L829,14010,2801,3.9865,44.9992683,8.0522905
005,Viarigi,115,L834,14030,868,13.6222,44.980449,8.3586906
005,Vigliano d'Asti,116,L879,14040,816,6.6529,44.835101,8.2318906
005,Villafranca d'Asti,117,L945,14018,2930,12.8715,44.9136684,8.0322123
005,Villanova d'Asti,118,L984,14019,5497,41.947,44.9418872,7.9372218
005,Villa San Secondo,119,M019,14020,379,6.1268,45.0051825,8.1352553
005,Vinchio,120,M058,14040,548,9.2863,44.8074021,8.3173016
005,Montiglio Monferrato,121,M302,14026,1516,26.8627,45.0674124,8.0977382
005,Moransengo-Tonengo,122,M434,14023,397,11.0003,45.1183412,8.0164395
006,Acqui Terme,001,A052,15011,19043,33.2966,44.6766013,8.4697522
006,Albera Ligure,002,A146,15060,314,21.2298,44.7009104,9.0684268
006,Alessandria,003,A182,15121 15122,90825,203.721,44.9129705,8.6154012
006,Alfiano Natta,004,A189,15021,,13.1593,45.0472315,8.2084598
006,Alice Bel Colle,005,A197,15010,713,12.2127,44.7257823,8.4512007
006,Altavilla Monferrato,007,A227,15041,399,11.3278,44.9928977,8.3757125
006,Alzano Scrivia,008,A245,15050,348,2.127,45.0175545,8.881287
006,Arquata Scrivia,009,A436,15061,6236,29.2435,44.6867333,8.8857447
006,Avolasca,010,A523,15050,253,12.2375,44.8029645,8.9652382
006,Balzola,011,A605,15031,1261,16.6194,45.1831971,8.402547
006,Basaluzzo,012,A689,15060,,15.0526,44.768289,8.7059341
006,Bassignana,013,A708,15042,1556,28.7123,45.0032111,8.7359431
006,Belforte Monferrato,014,A738,15070,499,8.3258,44.6243621,8.6616036
006,Bergamasco,015,A793,15022,709,13.4394,44.8271011,8.4552104
006,Berzano di Tortona,016,A813,15050,157,2.8874,44.8764534,8.9505959
006,Bistagno,017,A889,15012,1765,17.593,44.6617871,8.3685867
006,Borghetto di Borbera,018,A998,15060,1924,39.3975,44.7310474,8.9453502
006,Borgoratto Alessandrino,019,B029,15013,536,6.6034,44.8364862,8.5394206
006,Borgo San Martino,020,B037,15032,1343,9.7357,45.0890899,8.5236214
006,Bosco Marengo,021,B071,15062,2241,44.588,44.8220868,8.675991
006,Bosio,022,B080,15060,1062,67.6141,44.6477824,8.7919125
006,Bozzole,023,B109,15040,311,9.0237,45.0678753,8.6048772
006,Brignano-Frascata,024,B179,15050,426,17.5285,44.8119469,9.040796
006,Cabella Ligure,025,B311,15060,468,46.6333,44.6730762,9.0962927
006,Camagna Monferrato,026,B453,15030,468,9.2494,45.0178457,8.4303369
006,Camino,027,B482,15020,736,18.4375,45.1622096,8.2870447
006,Cantalupo Ligure,028,B629,15060,454,24.0617,44.7189679,9.0443591
006,Capriata d'Orba,029,B701,15060,1777,28.4663,44.7299603,8.6889378
006,Carbonara Scrivia,030,B736,15050,1104,5.0525,44.8497637,8.8707753
006,Carentino,031,B765,15026,321,9.7893,44.8288725,8.4704697
006,Carezzano,032,B769,15051,426,10.4834,44.8067495,8.9000082
006,Carpeneto,033,B818,15071,911,13.3393,44.677249,8.6063158
006,Carrega Ligure,034,B836,15060,88,55.2555,44.6190667,9.1756124
006,Carrosio,035,B840,15060,494,6.9234,44.6593983,8.8323311
006,Cartosio,036,B847,15015,720,16.3413,44.5911938,8.4185292
006,Casal Cermelli,037,B870,15072,1182,11.9646,44.8357007,8.6224245
006,Casaleggio Boiro,038,B882,15070,370,12.0105,44.6342933,8.7316846
006,Casale Monferrato,039,B885,15033,32399,86.2099,45.135028,8.452606
006,Casalnoceto,040,B902,15052,969,12.9868,44.9131601,8.9819855
006,Casasco,041,B941,15050,121,9.0373,44.8282217,9.0060511
006,Cassine,043,C027,15016,2821,33.0924,44.74821,8.525483
006,Cassinelle,044,C030,15070,852,23.772,44.6068391,8.5604746
006,Castellania Coppi,045,C137,15051,88,7.209,44.7988419,8.9304523
006,Castellar Guidobono,046,C142,15050,398,2.4829,44.9062642,8.9467351
006,Castellazzo Bormida,047,C148,15073,4435,45.1281,44.8454696,8.5771165
006,Castelletto d'Erro,048,C156,15010,135,4.66,44.6250784,8.394411
006,Castelletto d'Orba,049,C158,15060,1855,13.977,44.685562,8.7022553
006,Castelletto Merli,050,C160,15020,452,11.591,45.0752003,8.2405562
006,Castelletto Monferrato,051,C162,15040,1443,9.5776,44.9798675,8.5662417
006,Castelnuovo Bormida,052,C229,15017,612,13.1106,44.7436825,8.5462034
006,Castelnuovo Scrivia,053,C243,15053,4874,45.4215,44.9794221,8.8816324
006,Castelspina,054,C274,15070,392,5.4872,44.8044664,8.5824154
006,Cavatore,055,C387,15010,261,10.4466,44.6309548,8.452413
006,Cella Monte,056,C432,15034,467,5.5526,45.0748007,8.3906872
006,Cereseto,057,C503,15020,396,10.4427,45.0860104,8.3169408
006,Cerreto Grue,058,C507,15050,302,4.747,44.8418594,8.9319766
006,Cerrina Monferrato,059,C531,15020,1309,17.3008,45.120192,8.2152477
006,Coniolo,060,C962,15030,445,10.2961,45.1469086,8.3720472
006,Conzano,061,C977,15030,951,11.6115,45.0205408,8.4560585
006,Costa Vescovato,062,D102,15050,316,7.8996,44.8182014,8.9290162
006,Cremolino,063,D149,15010,1012,14.3874,44.6374906,8.5858399
006,Denice,065,D272,15010,171,7.462,44.5986572,8.3340115
006,Dernice,066,D277,15056,180,18.2764,44.7675981,9.0500793
006,Fabbrica Curone,067,D447,15054,586,53.8486,44.7548201,9.1541822
006,Felizzano,068,D528,15023,2131,25.0136,44.8980397,8.4358029
006,Fraconalto,069,D559,15060,303,17.6162,44.5921496,8.8779599
006,Francavilla Bisio,070,D759,15060,506,7.7515,44.7358845,8.731659
006,Frascaro,071,D770,15010,449,5.2861,44.8271093,8.5326506
006,Frassinello Monferrato,072,D777,15035,470,8.431,45.0315078,8.3866096
006,Frassineto Po,073,D780,15040,1362,29.4598,45.1340187,8.5361033
006,Fresonara,074,D797,15064,623,6.9336,44.7827316,8.6848407
006,Frugarolo,075,D813,15065,1893,27.0431,44.8389822,8.6790623
006,Fubine Monferrato,076,D814,15043,1577,25.5337,44.9655624,8.4254127
006,Gabiano,077,D835,15020,1022,17.7683,45.1589402,8.1931504
006,Gamalero,078,D890,15010,817,12.1544,44.8089199,8.5430521
006,Garbagna,079,D910,15050,615,20.7166,44.7809357,8.9990357
006,Gavi,081,D944,15066,2952,45.0432,44.6882933,8.8036063
006,Giarole,082,E015,15036,671,5.4494,45.060654,8.567857
006,Gremiasco,083,E164,15056,292,17.3843,44.7970425,9.1047386
006,Grognardo,084,E188,15010,221,9.0802,44.6299278,8.4915067
006,Grondona,085,E191,15060,476,25.943,44.6971918,8.9625408
006,Guazzora,086,E255,15050,292,2.8022,45.0135967,8.8449106
006,Isola Sant'Antonio,087,E360,15050,644,23.5481,45.0308725,8.8504086
006,Lerma,088,E543,15070,801,14.5357,44.6349675,8.7125166
006,Malvicino,090,E870,15015,79,9.035,44.5596507,8.4140666
006,Masio,091,F015,15024,1278,22.232,44.8693908,8.408011
006,Melazzo,092,F096,15010,1258,19.7374,44.6439852,8.4269029
006,Merana,093,F131,15010,185,9.1997,44.517788,8.2975246
006,Mirabello Monferrato,094,F232,15040,1211,13.2358,45.0357457,8.5234501
006,Molare,095,F281,15074,2013,32.5044,44.6206141,8.6010831
006,Molino dei Torti,096,F293,15050,565,2.7529,45.0235405,8.8920305
006,Mombello Monferrato,097,F313,15020,925,19.694,45.1330294,8.2508837
006,Momperone,098,F320,15050,195,8.54,44.8386375,9.0344792
006,Moncestino,099,F337,15020,196,6.5183,45.154852,8.1584003
006,Mongiardino Ligure,100,F365,15060,154,29.0329,44.6385514,9.0612632
006,Monleale,101,F374,15059,553,9.6176,44.8850715,8.9843698
006,Montacuto,102,F387,15050,251,23.7473,44.7667481,9.1068749
006,Montaldeo,103,F403,15060,232,5.3757,44.6665306,8.7306833
006,Montaldo Bormida,104,F404,15010,608,5.724,44.6834491,8.5890058
006,Montecastello,105,F455,15040,693,7.4868,44.9489477,8.6866065
006,Montechiaro d'Acqui,106,F469,15010,501,17.5981,44.5949771,8.3796734
006,Montegioco,107,F518,15050,284,5.4513,44.8377939,8.9540834
006,Montemarzino,108,F562,15050,311,9.8515,44.8484822,8.9931314
006,Morano sul Po,109,F707,15025,1319,17.709,45.1640395,8.3656208
006,Morbello,110,F713,15010,389,23.9524,44.6034699,8.5100103
006,Mornese,111,F737,15075,710,13.2196,44.6390754,8.7561914
006,Morsasco,112,F751,15010,606,10.2943,44.6645589,8.549096
006,Murisengo,113,F814,15020,1291,15.3099,45.0834471,8.137466
006,Novi Ligure,114,F965,15067,27449,55.1949,44.7601792,8.787099
006,Occimiano,115,F995,15040,1242,22.4629,45.0601772,8.5066555
006,Odalengo Grande,116,F997,15020,407,15.546,45.1095224,8.1667216
006,Odalengo Piccolo,117,F998,15020,239,7.5707,45.0719277,8.2095151
006,Olivola,118,G042,15030,114,2.6908,45.0376938,8.3669623
006,Orsara Bormida,119,G124,15010,400,5.0996,44.6900822,8.5624365
006,Ottiglio,120,G193,15038,594,14.5434,45.0518339,8.3391467
006,Ovada,121,G197,15076,10873,35.3721,44.6374608,8.646387
006,Oviglio,122,G199,15026,1053,27.3668,44.8598003,8.4867247
006,Ozzano Monferrato,123,G204,15039,1366,15.1836,45.1018934,8.3762262
006,Paderna,124,G215,15050,198,4.4198,44.8207217,8.8900021
006,Pareto,125,G334,15010,517,41.7377,44.5157343,8.3828668
006,Parodi Ligure,126,G338,15060,614,12.5365,44.6708171,8.758618
006,Pasturana,127,G367,15060,1286,5.2811,44.7506725,8.7490384
006,Pecetto di Valenza,128,G397,15040,1166,11.3546,44.9897155,8.6704681
006,Pietra Marazzi,129,G619,15040,867,7.9973,44.9441397,8.6705542
006,Pomaro Monferrato,131,G807,15040,313,13.4426,45.0639175,8.5951919
006,Pontecurone,132,G839,15055,3427,29.7043,44.9588391,8.9359378
006,Pontestura,133,G858,15027,1312,18.9178,45.1436421,8.3325409
006,Ponti,134,G861,15010,6097,11.9675,44.6274099,8.3652335
006,Ponzano Monferrato,135,G872,15020,315,11.6498,45.0844601,8.2662183
006,Ponzone,136,G877,15010,999,69.0285,44.5863981,8.4596074
006,Pozzol Groppo,137,G960,15050,296,14.0867,44.877456,9.0293141
006,Pozzolo Formigaro,138,G961,15068,4513,36.1764,44.793865,8.7815464
006,Prasco,139,G987,15010,479,5.9723,44.6424071,8.5528503
006,Predosa,140,H021,15077,1895,33.0071,44.7527244,8.6592398
006,Quargnento,141,H104,15044,1347,36.1646,44.9448388,8.4877076
006,Quattordio,142,H121,15028,1497,17.7334,44.8992043,8.4059871
006,Ricaldone,143,H272,15010,612,10.515,44.7320841,8.4696335
006,Rivalta Bormida,144,H334,15010,1394,10.0518,44.7113696,8.5502585
006,Rivarone,145,H343,15040,393,6.0734,44.9776577,8.7156949
006,Roccaforte Ligure,146,H406,15060,123,20.5892,44.6777056,9.0277694
006,Rocca Grimalda,147,H414,15078,1430,15.4613,44.6710935,8.6472867
006,Rocchetta Ligure,148,H465,15060,218,10.1543,44.7065411,9.0500277
006,Rosignano Monferrato,149,H569,15030,1458,19.2796,45.0798449,8.3990589
006,Sala Monferrato,150,H677,15030,340,7.5754,45.0753978,8.3581763
006,Sale,151,H694,15045,1767,44.915,44.9847456,8.8089706
006,San Cristoforo,152,H810,15060,542,3.5707,44.6924073,8.7499958
006,San Giorgio Monferrato,153,H878,15020,1201,7.1153,45.1077863,8.4148569
006,San Salvatore Monferrato,154,I144,15046,4045,31.6916,44.9948033,8.5666904
006,San Sebastiano Curone,155,I150,15056,525,3.8925,44.7856067,9.0652433
006,Sant'Agata Fossili,156,I190,15050,367,7.7063,44.7859064,8.9189347
006,Sardigliano,157,I429,15060,386,12.743,44.754292,8.9076741
006,Sarezzano,158,I432,15050,1124,13.8531,44.8675538,8.9153611
006,Serralunga di Crea,159,I645,15020,509,8.8425,45.1007411,8.2818606
006,Serravalle Scrivia,160,I657,15069,5878,15.9473,44.7194648,8.8589917
006,Sezzadio,161,I711,15079,1174,34.3196,44.7855819,8.5727297
006,Silvano d'Orba,162,I738,15060,1914,12.168,44.6855659,8.6710129
006,Solero,163,I798,15029,1565,22.5538,44.9197586,8.5077097
006,Solonghello,164,I808,15020,195,4.9533,45.1309523,8.2818377
006,Spigno Monferrato,165,I901,15018,923,54.8539,44.543024,8.3353027
006,Spineto Scrivia,166,I911,15050,367,3.9541,44.8376236,8.8723825
006,Stazzano,167,I941,15060,2337,17.9146,44.7272525,8.8673933
006,Strevi,168,I977,15019,1896,15.2889,44.6986567,8.52246
006,Tagliolo Monferrato,169,L027,15070,1503,26.2113,44.6390773,8.6682523
006,Tassarolo,170,L059,15060,599,7.035,44.7265798,8.7695011
006,Terruggia,171,L139,15030,912,7.266,45.083056,8.4421786
006,Terzo,172,L143,15010,1147,8.7959,44.6695304,8.4210536
006,Ticineto,173,L165,15040,1307,8.1813,45.0974877,8.5555502
006,Tortona,174,L304,15057,26461,98.8665,44.8947397,8.8601589
006,Treville,175,L403,15030,1365,4.6032,45.0971413,8.3597585
006,Trisobbio,176,L432,15070,667,9.2193,44.6622963,8.5862757
006,Valenza,177,L570,15048,18090,48.4945,45.0144656,8.6462262
006,Valmacca,178,L633,15040,966,12.2936,45.1004646,8.5823372
006,Vignale Monferrato,179,L881,15049,943,18.7257,45.0109305,8.3965366
006,Vignole Borbera,180,L887,15060,2022,8.6455,44.7082847,8.8905588
006,Viguzzolo,181,L904,15058,3054,18.3072,44.9049194,8.9200804
006,Villadeati,182,L931,15020,481,14.4926,45.0724416,8.1696989
006,Villalvernia,183,L963,15050,876,4.4416,44.8176011,8.8566406
006,Villamiroglio,184,L970,15020,299,9.8686,45.1344466,8.1697573
006,Villanova Monferrato,185,L972,15030,1748,16.5563,45.1817906,8.4784678
006,Villaromagnano,186,M009,15050,653,6.0672,44.8510879,8.8871349
006,Visone,187,M077,15010,1138,12.5616,44.6620556,8.5032776
006,Volpedo,188,M120,15059,1157,10.4833,44.8888012,8.983383
006,Volpeglino,189,M121,15050,134,3.2458,44.8930471,8.958964
006,Voltaggio,190,M123,15060,667,52.1828,44.6201255,8.842657
006,Cassano Spinola,191,M388,15063,1825,17.159,44.7706175,8.869615
006,Alluvioni Piovera,192,M397,15047,1616,24.7844,44.967777,8.7536056
006,Lu e Cuccaro Monferrato,193,M420,15037,1330,27.0951,45.0023858,8.4837614
007,Allein,001,A205,11010,211,7.964,45.8130096,7.2724783
007,Antey-Saint-André,002,A305,11020,542,11.8126,45.8049657,7.5932085
007,Aosta,003,A326,11100,33223,21.3922,45.7375122,7.3201491
007,Arnad,004,A424,11020,1249,28.8405,45.6449847,7.7212755
007,Arvier,005,A452,11011,833,33.3596,45.7035684,7.1693041
007,Avise,006,A521,11010,299,52.6166,45.7087107,7.1413297
007,Ayas,007,A094,11020,1359,129.4208,45.8140546,7.6881569
007,Aymavilles,008,A108,11010,2114,53.2435,45.7013767,7.2405449
007,Bard,009,A643,11020,13424,3.0315,45.6079645,7.7466341
007,Bionaz,010,A877,11010,218,142.0904,45.8740793,7.4230709
007,Brissogne,011,B192,11020,948,25.5436,45.7271899,7.4045742
007,Brusson,012,B230,11022,861,55.2569,45.7586279,7.7328122
007,Challand-Saint-Anselme,013,C593,11020,742,27.9864,45.7164084,7.7365646
007,Challand-Saint-Victor,014,C594,11020,547,25.1589,45.689783,7.7064615
007,Chambave,015,C595,11023,886,21.5416,45.7443453,7.5499413
007,Chamois,016,B491,11020,109,14.5283,45.8383677,7.6202844
007,Champdepraz,017,C596,11020,717,48.7924,45.685749,7.6577543
007,Champorcher,018,B540,11020,374,68.4323,45.6236202,7.6207939
007,Charvensod,019,C598,11020,2367,25.8619,45.7204438,7.3254073
007,Châtillon,020,C294,11024,,39.6811,45.7495761,7.6132484
007,Cogne,021,C821,11012,1315,213.0366,45.6081108,7.3558966
007,Courmayeur,022,D012,11013,2615,209.6058,45.7930597,6.9721103
007,Donnas,023,D338,11020,2389,33.9756,45.6034918,7.7674393
007,Doues,024,D356,11010,502,16.2542,45.8192565,7.3066494
007,Emarèse,025,D402,11020,220,10.233,45.7247084,7.7004409
007,Etroubles,026,D444,11014,472,39.5692,45.8197115,7.232954
007,Fénis,027,D537,11020,1788,68.1198,45.7361087,7.494299
007,Fontainemore,028,D666,11020,425,31.7086,45.6490086,7.8609733
007,Gaby,029,D839,11020,424,32.8795,45.7128719,7.8823494
007,Gignod,030,E029,11010,1699,25.9833,45.778262,7.2961777
007,Gressan,031,E165,11020,3390,25.2939,45.7216299,7.2894405
007,Gressoney-La-Trinité,032,E167,11020,332,66.5155,45.8272526,7.8230854
007,Gressoney-Saint-Jean,033,E168,11025,799,69.6469,45.7770071,7.8275858
007,Hône,034,E273,11020,,12.6384,45.6118625,7.735733
007,Introd,035,E306,11010,642,20.0381,45.6914789,7.1872175
007,Issime,036,E369,11020,378,34.6742,45.6854598,7.8542158
007,Issogne,037,E371,11020,1323,23.584,45.653958,7.6844172
007,Jovençan,038,E391,11020,,7.012,45.7139721,7.2749773
007,La Magdeleine,039,A308,11020,108,8.9366,45.8108078,7.6190993
007,La Salle,040,E458,11015,2021,83.9427,45.7468981,7.072596
007,La Thuile,041,E470,11016,816,125.6666,45.7168438,6.9490717
007,Lillianes,042,E587,11020,432,18.5455,45.6327735,7.8450707
007,Montjovet,043,F367,11020,1766,18.7597,45.7042245,7.6741872
007,Morgex,044,F726,11017,2058,43.6277,45.7569917,7.0360689
007,Nus,045,F987,11020,1089,57.3588,45.7392154,7.4669414
007,Ollomont,046,G045,11010,158,53.4824,45.8491128,7.3109029
007,Oyace,047,G012,11010,209,30.5598,45.8507095,7.3825057
007,Perloz,048,G459,11020,458,23.2661,45.6131213,7.8086028
007,Pollein,049,G794,11020,1507,15.3265,45.7280585,7.3571718
007,Pontboset,050,G545,11020,171,33.5584,45.606438,7.6876522
007,Pontey,051,G860,11024,795,15.7533,45.7379093,7.5913491
007,Pont-Saint-Martin,052,G854,11026,3553,6.9217,45.5998198,7.7977978
007,Pré-Saint-Didier,053,H042,11010,977,33.4019,45.763774,6.9863526
007,Quart,054,H110,11020,4089,62.0249,45.740689,7.4156026
007,Rhêmes-Notre-Dame,055,H262,11010,,86.8333,45.5697142,7.1185287
007,Rhêmes-Saint-Georges,056,H263,11010,,36.3385,45.6552641,7.1552473
007,Roisan,057,H497,11010,1005,14.641,45.7844334,7.3105788
007,Saint-Christophe,058,H669,11020,3484,14.7362,45.74834,7.3578141
007,Saint-Denis,059,H670,11023,371,11.3871,45.7521873,7.5571919
007,Saint-Marcel,060,H671,11020,1312,42.3775,45.7324249,7.4482864
007,Saint-Nicolas,061,H672,11010,321,15.4576,45.7166266,7.1678868
007,Saint-Oyen,062,H673,11014,198,9.4206,45.824633,7.2124075
007,Saint-Pierre,063,H674,11010,3240,26.1772,45.7104427,7.2262887
007,Saint-Rhémy-en-Bosses,064,H675,11010,330,64.877,45.8230695,7.1820635
007,Saint-Vincent,065,H676,11027,4451,20.5722,45.7502297,7.6475021
007,Sarre,066,I442,11010,4755,28.2904,45.7179534,7.2576449
007,Torgnon,067,L217,11020,556,42.4583,45.8014819,7.5712055
007,Valgrisenche,068,L582,11010,192,113.4757,45.6303453,7.0647555
007,Valpelline,069,L643,11010,591,31.4468,45.8264336,7.3285534
007,Valsavarenche,070,L647,11010,166,138.2072,45.5919986,7.2083118
007,Valtournenche,071,L654,11028,2198,116.1501,45.877096,7.6227088
007,Verrayes,072,L783,11020,1294,22.3547,45.7614537,7.5322539
007,Verrès,073,C282,11029,2578,8.387,45.6687354,7.6899406
007,Villeneuve,074,L981,11018,1278,8.7979,45.7027608,7.2077395
008,Airole,001,A111,18030,363,14.6268,43.871914,7.5537342
008,Apricale,002,A338,18035,628,19.9364,43.8804478,7.6604748
008,Aquila d'Arroscia,003,A344,18020,147,10.0601,44.0836723,8.0053808
008,Armo,004,A418,18026,118,10.0925,44.08736,7.9140091
008,Aurigo,005,A499,18020,337,9.1429,43.982997,7.9225641
008,Badalucco,006,A536,18010,1068,16.1378,43.9156189,7.8470478
008,Bajardo,007,A581,18031,372,24.3196,43.9034868,7.7182324
008,Bordighera,008,A984,18012,10130,10.6993,43.7797422,7.6718889
008,Borghetto d'Arroscia,009,A993,18020,408,25.9386,44.0574515,7.9818271
008,Borgomaro,010,B020,18021,827,23.4357,43.9755854,7.9448964
008,Camporosso,011,B559,18033,5577,17.9485,43.8151628,7.6283324
008,Caravonica,012,B734,18020,262,4.4708,43.992325,7.9588782
008,Castellaro,014,C143,18011,1267,7.8606,43.864681,7.8683164
008,Castel Vittorio,015,C110,18030,261,25.9282,43.9287266,7.6731857
008,Ceriana,016,C511,18034,1099,31.7925,43.8809296,7.7729467
008,Cervo,017,C559,18010,521,3.5948,43.9253209,8.1143923
008,Cesio,018,C578,18022,273,8.857,44.0076981,7.9749721
008,Chiusanico,019,C657,18027,593,13.5069,43.9732241,7.9916404
008,Chiusavecchia,020,C660,18027,513,4.0917,43.9678747,7.9833273
008,Cipressa,021,C718,18017,1181,9.3931,43.8529346,7.9340957
008,Civezza,022,C755,18017,628,3.88,43.8793189,7.9512847
008,Cosio d'Arroscia,023,D087,18023,175,40.5547,44.0758019,7.8311678
008,Costarainera,024,D114,18017,777,2.5196,43.8545168,7.9412404
008,Diano Arentino,025,D293,18013,685,8.3343,43.9479812,8.0422747
008,Diano Castello,026,D296,18013,2260,6.1124,43.9241588,8.0666595
008,Diano Marina,027,D297,18013,5628,6.6615,43.9100167,8.0817928
008,Diano San Pietro,028,D298,18013,1098,11.9131,43.93114,8.0687894
008,Dolceacqua,029,D318,18035,2145,20.2846,43.8481004,7.6234657
008,Dolcedo,030,D319,18020,1273,19.7953,43.9069224,7.9517765
008,Imperia,031,E290,18100,41960,45.4686,43.8856884,8.0278506
008,Isolabona,032,E346,18035,677,12.3465,43.8799725,7.6388632
008,Lucinasco,033,E719,18020,293,7.8969,43.9677587,7.9627524
008,Mendatica,034,F123,18025,162,30.6911,44.0763582,7.8055599
008,Molini di Triora,035,F290,18010,622,58.0473,43.9901246,7.7743299
008,Montegrosso Pian Latte,037,F528,18025,120,10.0261,44.0665945,7.8178446
008,Olivetta San Michele,038,G041,18030,201,13.8375,43.8797903,7.5155031
008,Ospedaletti,039,G164,18014,3168,5.4996,43.800723,7.7177018
008,Perinaldo,040,G454,18032,845,20.2994,43.8661809,7.6742398
008,Pietrabruna,041,G607,18010,453,10.2246,43.8899565,7.9034762
008,Pieve di Teco,042,G632,18026,1322,40.5053,44.0469822,7.9152154
008,Pigna,043,G660,18037,4030,53.2305,43.9329923,7.6633807
008,Pompeiana,044,G814,18015,852,5.3803,43.8527632,7.8885285
008,Pontedassio,045,G840,18027,2341,13.3126,43.9404276,8.0126944
008,Pornassio,046,G890,18024,656,27.2113,44.0702531,7.8709539
008,Prelà,047,H027,18020,482,14.8027,43.9262062,7.9369917
008,Ranzo,048,H180,18020,2758,10.8563,44.0595458,8.0144682
008,Rezzo,049,H257,18026,96717,37.3675,44.0202976,7.8721575
008,Riva Ligure,050,H328,18015,2812,2.0729,43.8375052,7.8817125
008,Rocchetta Nervina,051,H460,18030,293,15.2848,43.8901585,7.6002952
008,San Bartolomeo al Mare,052,H763,18016,2943,10.88,43.9284954,8.1021686
008,San Biagio della Cima,053,H780,18036,1246,4.3071,43.8187688,7.6498503
008,San Lorenzo al Mare,054,H957,18017,1226,1.3475,43.8535908,7.9638818
008,Sanremo,055,I138,18038,52918,56.0067,43.820981,7.784633
008,Santo Stefano al Mare,056,I365,18010,2031,2.7084,43.8372295,7.8990784
008,Seborga,057,I556,18012,281,4.8705,43.8258641,7.6941607
008,Soldano,058,I796,18036,996,3.466,43.8267039,7.65408
008,Taggia,059,L024,18018,13766,31.3633,43.8436087,7.8505232
008,Terzorio,060,L146,18010,235,1.9254,43.8528218,7.8982479
008,Triora,061,L430,18010,360,67.6059,43.9937968,7.7621127
008,Vallebona,062,L596,18012,1257,5.8807,43.8132615,7.6668365
008,Vallecrosia,063,L599,18019,6727,3.7219,43.7931629,7.6437876
008,Vasia,064,L693,18020,366,11.1512,43.9330058,7.9541079
008,Ventimiglia,065,L741,18039,23018,53.8308,43.790018,7.6086353
008,Vessalico,066,L809,18026,247,10.4645,44.0462117,7.9622468
008,Villa Faraldi,067,L943,18010,448,9.5156,43.9670748,8.0914672
008,Montalto Carpasio,068,M387,18028,502,29.9658,43.9462046,7.8503675
009,Alassio,001,A122,17021,10168,17.2553,44.0080222,8.1729613
009,Albenga,002,A145,17031,23435,36.5893,44.0490915,8.2129474
009,Albissola Marina,003,A165,17012,5259,3.2457,44.3272366,8.5031814
009,Albisola Superiore,004,A166,17011,9644,28.6771,44.3396755,8.5103396
009,Altare,005,A226,17041,1932,11.2964,44.3347713,8.3439315
009,Andora,006,A278,17051,7261,31.8219,43.9582305,8.1400348
009,Arnasco,007,A422,17032,573,6.093,44.0779834,8.1069681
009,Balestrino,008,A593,17020,,11.2733,44.1248827,8.1745869
009,Bardineto,009,A647,17057,748,29.7933,44.1920828,8.1293889
009,Bergeggi,010,A796,17028,1068,3.6898,44.2490483,8.444101
009,Boissano,011,A931,17054,2527,8.3521,44.134228,8.2212316
009,Borghetto Santo Spirito,012,A999,17052,4612,5.4033,44.1153694,8.2419882
009,Borgio Verezzi,013,B005,17022,2086,2.7664,44.1598605,8.3045611
009,Bormida,014,B048,17045,343,22.4709,44.2786447,8.2326114
009,Cairo Montenotte,015,B369,17014,12648,100.4025,44.3997074,8.2741727
009,Calice Ligure,016,B409,17020,1692,20.6033,44.2049045,8.2942695
009,Calizzano,017,B416,17057,1423,62.7437,44.235183,8.1153716
009,Carcare,018,B748,17043,5254,10.4004,44.3579556,8.2908282
009,Casanova Lerrone,019,B927,17033,737,24.2297,44.0315782,8.0482772
009,Castelbianco,020,C063,17030,316,14.7043,44.1132008,8.0747994
009,Castelvecchio di Rocca Barbena,021,C276,17034,133,16.1434,44.1303687,8.1155061
009,Celle Ligure,022,C443,17015,4910,9.5613,44.3420502,8.5452236
009,Cengio,023,C463,17056,3293,18.9616,44.3875528,8.2084098
009,Ceriale,024,C510,17023,5365,11.1526,44.0963417,8.2320661
009,Cisano sul Neva,025,C729,17035,2122,12.2726,44.0872783,8.1449606
009,Cosseria,026,D095,17017,1053,12.4066,44.368502,8.2344564
009,Dego,027,D264,17058,7112,66.8144,44.4495854,8.310382
009,Erli,028,D424,17030,2752,16.7297,44.1365482,8.1053312
009,Finale Ligure,029,D600,17024,11157,35.5308,44.1690091,8.3436046
009,Garlenda,030,D927,17033,1348,8.0552,44.0335846,8.0967961
009,Giustenice,031,E064,17027,993,17.2237,44.1723119,8.246216
009,Giusvalla,032,E066,17010,401,19.7021,44.4494693,8.3937269
009,Laigueglia,033,E414,17053,1696,2.7741,43.9746022,8.1581444
009,Loano,034,E632,17025,10788,13.5303,44.1291586,8.2597773
009,Magliolo,035,E816,17020,933,19.5718,44.191623,8.2501862
009,Mallare,036,E860,17045,1061,31.7301,44.2914539,8.2975768
009,Massimino,037,F046,12071,97,7.8506,44.2993814,8.0711602
009,Millesimo,038,F213,17017,3212,15.9576,44.3644121,8.2058184
009,Mioglia,039,F226,17040,490,19.2984,44.489852,8.4112729
009,Murialdo,040,F813,17013,773,39.2211,44.3161602,8.161357
009,Nasino,041,F847,17030,174,22.1768,44.1150991,8.0278418
009,Noli,042,F926,17026,649,9.6682,44.2056498,8.4161844
009,Onzo,043,G076,17037,3110,8.2263,44.0695763,8.0514115
009,Orco Feglino,044,D522,17024,919,17.313,44.2195535,8.325162
009,Ortovero,045,G144,17037,1599,9.6586,44.0538113,8.0910885
009,Osiglia,046,G155,17010,443,28.1736,44.280779,8.2006191
009,Pallare,047,G281,17043,900,21.3321,44.3276203,8.2749643
009,Piana Crixia,048,G542,17058,760,30.4449,44.4852627,8.3075121
009,Pietra Ligure,049,G605,17027,8326,9.8442,44.1488471,8.2828272
009,Plodio,050,G741,17043,622,8.6454,44.3565203,8.2435229
009,Pontinvrea,051,G866,17042,820,24.9456,44.444887,8.4345702
009,Quiliano,052,H126,17047,6902,49.9355,44.2934099,8.4113798
009,Rialto,053,H266,17020,546,19.5972,44.2195947,8.2747214
009,Roccavignale,054,H452,17017,741,17.7066,44.3618745,8.1920123
009,Sassello,055,I453,17046,1747,100.6552,44.4790272,8.4899453
009,Savona,056,I480,17100,58534,65.374,44.3074927,8.4811088
009,Spotorno,057,I926,17028,3498,8.0195,44.2271587,8.4194628
009,Stella,058,I946,17044,2684,43.6807,44.3968814,8.4930781
009,Stellanello,059,I947,17020,852,17.7756,44.0003014,8.0593307
009,Testico,060,L152,17020,177,10.2868,44.0053528,8.0309741
009,Toirano,061,L190,17055,2640,18.9652,44.1269032,8.2071936
009,Tovo San Giacomo,062,L315,17020,2504,9.4467,44.176688,8.2685381
009,Urbe,063,L499,17048,653,31.1688,44.4877447,8.5923872
009,Vado Ligure,064,L528,17047,8105,23.8939,44.2693257,8.4362807
009,Varazze,065,L675,17019,12620,48.0095,44.3599878,8.5763981
009,Vendone,066,L730,17032,366,9.915,44.073996,8.0742597
009,Vezzi Portio,067,L823,17028,795,8.7619,44.2289334,8.3619475
009,Villanova d'Albenga,068,L975,17038,2764,15.8677,44.045885,8.1430809
009,Zuccarello,069,M197,17039,286,10.807,44.1113325,8.1156583
010,Arenzano,001,A388,16011,11163,24.305,44.4017827,8.6822606
010,Avegno,002,A506,16036,2519,10.9316,44.3822961,9.1587177
010,Bargagli,003,A658,16021,2558,16.2765,44.4446331,9.0883387
010,Bogliasco,004,A922,16031,4379,4.4232,44.3782107,9.0697813
010,Borzonasca,005,B067,16041,1834,80.5133,44.4221928,9.3867974
010,Busalla,006,B282,16012,5168,17.1058,44.5707931,8.9449805
010,Camogli,007,B490,16032,5022,10.0076,44.3467936,9.1571384
010,Campo Ligure,008,B538,16013,2790,23.7401,44.5383796,8.6976292
010,Campomorone,009,B551,16014,6482,25.9074,44.5066865,8.8926758
010,Carasco,010,B726,16042,3770,8.4612,44.3513034,9.3440404
010,Casarza Ligure,011,B939,16030,6729,27.8218,44.2746082,9.4534569
010,Casella,012,B956,16015,3125,8.0657,44.5349873,8.9991988
010,Castiglione Chiavarese,013,C302,16030,1580,29.7496,44.2746986,9.513548
010,Ceranesi,014,C481,16014,3637,30.6931,44.5039261,8.8945971
010,Chiavari,015,C621,16043,27228,12.2802,44.3166989,9.324017
010,Cicagna,016,C673,16044,2250,11.2878,44.4085895,9.2359489
010,Cogoleto,017,C823,16016,8603,20.723,44.3894582,8.6463299
010,Cogorno,018,C826,16030,5724,9.0873,44.3286344,9.3521727
010,Coreglia Ligure,019,C995,16040,267,8.0024,44.3920341,9.2669873
010,Crocefieschi,020,D175,16010,522,11.7248,44.5848167,9.0228175
010,Davagna,021,D255,16022,1857,20.5251,44.4647349,9.0866897
010,Fascia,022,D509,16020,73,11.2541,44.5644819,9.2362667
010,Favale di Malvaro,023,D512,16040,433,16.6164,44.4520292,9.2580251
010,Fontanigorda,024,D677,16023,244,16.1628,44.5465479,9.304948
010,Genova,025,D969,16121 16122 16123 16124 16125 16126 16127 16128 16129 16131 16132 16133 16134 16135 16136 16137 16138 16139 16141 16142 16143 16144 16145 16146 16147 16148 16149 16151 16152 16153 16154 16155 16156 16157 16158 16159 16161 16162 16163 16164 16165 16166 16167,561203,240.6542,44.4114827,8.9326992
010,Gorreto,026,E109,16020,94,18.8758,44.6049614,9.2920949
010,Isola del Cantone,027,E341,16017,1392,47.9667,44.6458385,8.9559704
010,Lavagna,028,E488,16033,12315,13.8679,44.3071457,9.3440367
010,Leivi,029,E519,16040,2404,9.7098,44.345512,9.3182163
010,Lorsica,030,E695,16045,412,17.7183,44.4323345,9.2743344
010,Lumarzo,031,E737,16024,1433,25.5078,44.4435587,9.1373208
010,Masone,032,F020,16010,3443,29.4412,44.5036272,8.7116929
010,Mele,033,F098,16010,561,16.9336,44.445393,8.7480287
010,Mezzanego,034,F173,16046,1483,28.6496,44.3836866,9.3769056
010,Mignanego,035,F202,16018,3495,16.2723,44.5276349,8.9146833
010,Moconesi,036,F256,16047,2437,16.3085,44.4195185,9.2123474
010,Moneglia,037,F354,16030,2589,15.6111,44.2385357,9.4901268
010,Montebruno,038,F445,16025,207,17.6787,44.5270846,9.2497904
010,Montoggio,039,F682,16026,2008,47.7246,44.5155717,9.0441989
010,Ne,040,F858,16040,1123,63.5213,44.3443558,9.3984203
010,Neirone,041,F862,16040,843,30.2561,44.4542452,9.190901
010,Orero,042,G093,16040,503,15.9885,44.4072238,9.2746015
010,Pieve Ligure,043,G646,16031,2429,3.5565,44.3746594,9.0868903
010,Portofino,044,G913,16034,369,2.531,44.3040798,9.2072288
010,Propata,045,H073,16027,113,16.931,44.5647089,9.1848828
010,Rapallo,046,H183,16035,29107,33.6304,44.3501632,9.2317468
010,Recco,047,H212,16036,9464,9.7864,44.3621819,9.143549
010,Rezzoaglio,048,H258,16048,875,104.7191,44.5256979,9.3866581
010,Ronco Scrivia,049,H536,16019,4179,30.1114,44.6081958,8.954988
010,Rondanina,050,H546,16025,60,12.8079,44.5623489,9.217609
010,Rossiglione,051,H581,16010,2560,47.5928,44.5621053,8.6705351
010,Rovegno,052,H599,16028,492,44.0858,44.577106,9.278673
010,San Colombano Certenoli,053,H802,16040,2563,41.5747,44.3717209,9.3131235
010,Santa Margherita Ligure,054,I225,16038,8575,10.0549,44.3348582,9.2099246
010,Sant'Olcese,055,I346,16010,5601,21.9016,44.4836564,8.9676797
010,Santo Stefano d'Aveto,056,I368,16049,991,54.7734,44.5478205,9.4509266
010,Savignone,057,I475,16010,3038,21.7,44.5637275,8.9879556
010,Serra Riccò,058,I640,16010,7615,26.2065,44.5078406,8.936045
010,Sestri Levante,059,I693,16039,17607,33.6243,44.269888,9.3931623
010,Sori,060,I852,16031,74394,13.0661,44.372777,9.1043651
010,Tiglieto,061,L167,16010,476,24.537,44.5253484,8.6204455
010,Torriglia,062,L298,16029,2195,60.0146,44.5190106,9.1577778
010,Tribogna,063,L416,16030,566,7.0783,44.4162641,9.1955997
010,Uscio,064,L507,16036,2141,9.6332,44.4131909,9.1632877
010,Valbrevenna,065,L546,16010,757,34.6707,44.5565213,9.065026
010,Vobbia,066,M105,16010,365,33.4256,44.599759,9.0398234
010,Zoagli,067,M182,16035,2306,7.7878,44.3370226,9.2672431
011,Ameglia,001,A261,19031,4318,14.1935,44.0657315,9.9572684
011,Arcola,002,A373,19021,10183,16.5379,44.1145998,9.9058502
011,Beverino,003,A836,19020,2264,34.9449,44.1940556,9.7692788
011,Bolano,004,A932,19020,7451,14.5663,44.1888528,9.8952884
011,Bonassola,005,A961,19011,816,9.1896,44.1833461,9.584102
011,Borghetto di Vara,006,A992,19020,878,27.3369,44.2235064,9.7216093
011,Brugnato,007,B214,19020,1284,11.9013,44.2368525,9.7250221
011,Calice al Cornoviglio,008,B410,19020,,33.7544,44.2424653,9.8358309
011,Carro,009,B838,19012,514,31.7917,44.2726995,9.6082586
011,Carrodano,010,B839,19020,477,21.8631,44.242065,9.656159
011,Castelnuovo Magra,011,C240,19033,8361,15.0171,44.0984517,10.0182022
011,Deiva Marina,012,D265,19013,1292,14.0857,44.2188503,9.5205607
011,Follo,013,D655,19020,6133,23.2704,44.1626933,9.8621476
011,Framura,014,D758,19014,599,19.26,44.2089052,9.5543579
011,La Spezia,015,E463,19121 19122 19123 19124 19125 19126 19131 19132 19133 19134 19135 19136 19137,92169,51.5856,44.107035,9.8281895
011,Lerici,016,E542,19032,9497,16.0126,44.0760175,9.9109827
011,Levanto,017,E560,19015,5218,36.8144,44.1699612,9.6124648
011,Maissana,018,E842,19010,583,45.4275,44.3366603,9.5350179
011,Monterosso al Mare,019,F609,19016,1371,10.9434,44.1462812,9.6561365
011,Luni,020,G143,19034,969,13.8558,44.0849556,10.0420289
011,Pignone,021,G664,19020,519,17.7462,44.1791457,9.7240459
011,Portovenere,022,G925,19025,3310,7.6576,44.0557766,9.8370049
011,Riccò del Golfo di Spezia,023,H275,19020,3615,37.7634,44.1555442,9.7634234
011,Riomaggiore,024,H304,19017,1353,10.292,44.0997167,9.7381498
011,Rocchetta di Vara,025,H461,19020,674,32.6636,44.2511775,9.7568904
011,Santo Stefano di Magra,026,I363,19037,9837,13.8525,44.1623971,9.9150973
011,Sarzana,027,I449,19038,21610,34.5435,44.1129151,9.959676
011,Sesta Godano,028,E070,19020,1273,67.7758,44.293983,9.6757239
011,Varese Ligure,029,L681,19028,1811,137.5883,44.37772,9.5956794
011,Vernazza,030,L774,19018,759,12.3024,44.1352155,9.6837322
011,Vezzano Ligure,031,L819,19020,7212,18.3679,44.1413455,9.8844786
011,Zignago,032,M177,19020,475,28.7008,44.2775289,9.7449583
012,Agra,001,A085,21010,407,2.8282,46.0341012,8.7714462
012,Albizzate,002,A167,21041,5195,3.8863,45.7237452,8.803548
012,Angera,003,A290,21021,5396,17.7259,45.7724905,8.5750547
012,Arcisate,004,A371,21051,9915,12.1265,45.8593769,8.859796
012,Arsago Seprio,005,A441,21010,4785,10.5059,45.6879998,8.7310294
012,Azzate,006,A531,21022,4621,4.5062,45.7819851,8.7968612
012,Azzio,007,A532,21030,755,2.1722,45.8853729,8.7062968
012,Barasso,008,A619,21020,1620,3.9405,45.8404787,8.7581038
012,Bedero Valcuvia,010,A728,21039,665,2.5636,45.9126476,8.7944129
012,Besano,011,A819,21050,2509,3.432,45.8892429,8.8899486
012,Besnate,012,A825,21010,5475,7.4769,45.7003636,8.7694001
012,Besozzo,013,A826,21023,8756,13.9453,45.8516271,8.6651545
012,Biandronno,014,A845,21024,3167,9.5211,45.8194045,8.7123263
012,Bisuschio,015,A891,21050,4250,7.0299,45.8724256,8.8703583
012,Bodio Lomnago,016,A918,21020,2231,4.0385,45.7898998,8.7514329
012,Brebbia,017,B126,21020,3155,6.8685,45.8285779,8.649869
012,Brenta,019,B150,21030,1735,4.182,45.8952206,8.6841501
012,Brezzo di Bedero,020,B166,21010,1246,9.9484,45.9779019,8.7183917
012,Brinzio,021,B182,21030,773,6.3964,45.889147,8.7868065
012,Brissago-Valtravaglia,022,B191,21030,1245,6.0848,45.9496335,8.7464112
012,Brunello,023,B219,21020,929,1.62,45.7661671,8.7958022
012,Brusimpiano,024,B228,21050,1170,5.9058,45.9472013,8.8896034
012,Buguggiate,025,B258,21020,3075,2.5046,45.7852677,8.8067573
012,Busto Arsizio,026,B300,21052,82754,30.6597,45.6150915,8.8549419
012,Cadegliano-Viconago,027,B326,21031,2131,10.2718,45.9587903,8.844665
012,Cairate,029,B368,21050,7729,11.2636,45.6920361,8.870813
012,Cantello,030,B634,21050,4726,9.1334,45.8210683,8.8969693
012,Caravate,031,B732,21032,2551,5.1274,45.8795169,8.6554768
012,Cardano al Campo,032,B754,21010,14728,9.4198,45.646621,8.7745785
012,Carnago,033,B796,21040,6600,6.2222,45.7182926,8.8362717
012,Caronno Pertusella,034,B805,21042,18116,8.5453,45.5968257,9.047868
012,Caronno Varesino,035,B807,21040,4786,5.7494,45.7388018,8.8309885
012,Casale Litta,036,B875,21020,2729,10.5879,45.7674002,8.7403368
012,Casalzuigno,037,B921,21030,1362,7.3257,45.9032813,8.7055078
012,Casciago,038,B949,21020,3617,4.0454,45.834785,8.7843793
012,Casorate Sempione,039,B987,21011,5671,6.909,45.6717219,8.7403179
012,Cassano Magnago,040,C004,21012,21362,12.3236,45.6743893,8.8208252
012,Cassano Valcuvia,041,B999,21030,670,3.9999,45.9325891,8.7681767
012,Castellanza,042,C139,21053,14077,6.9206,45.6114782,8.8975879
012,Castello Cabiaglio,043,B312,21030,558,6.9824,45.8925597,8.7548188
012,Castelseprio,044,C273,21050,1309,3.7509,45.7169623,8.8612739
012,Castelveccana,045,C181,21010,1867,20.8104,45.9465457,8.6648318
012,Castiglione Olona,046,C300,21043,7582,6.9003,45.7563943,8.8680809
012,Castronno,047,C343,21040,5039,3.759,45.7469707,8.8128895
012,Cavaria con Premezzo,048,C382,21044,5638,3.3195,45.6945576,8.7976803
012,Cazzago Brabbia,049,C409,21020,802,4.0039,45.7953614,8.7352758
012,Cislago,050,C732,21040,10413,11.1335,45.6617568,8.9706213
012,Cittiglio,051,C751,21033,3807,11.1074,45.8946743,8.668713
012,Clivio,052,C796,21050,1938,2.9838,45.8644697,8.93359
012,Cocquio-Trevisago,053,C810,21034,4623,9.8056,45.8578906,8.6965464
012,Comabbio,054,C911,21020,1221,4.6874,45.7726464,8.6746659
012,Comerio,055,C922,21025,2835,5.5386,45.8426331,8.7470937
012,Cremenaga,056,D144,21030,775,4.551,45.9892569,8.8065921
012,Crosio della Valle,057,D185,21020,601,1.4407,45.7616444,8.767569
012,Cuasso al Monte,058,D192,21050,3574,16.1837,45.914416,8.8798154
012,Cugliate-Fabiasco,059,D199,21030,3070,6.5438,45.9470426,8.8206542
012,Cunardo,060,D204,21035,2885,6.0591,45.9378271,8.802254
012,Curiglia con Monteviasco,061,D217,21010,156,10.8542,46.0606636,8.8048167
012,Cuveglio,062,D238,21030,3246,7.4882,45.9059775,8.7358352
012,Cuvio,063,D239,21030,1631,5.9589,45.8980427,8.731387
012,Daverio,064,D256,21020,3085,4.0249,45.7771193,8.7715058
012,Dumenza,065,D384,21010,1461,18.4152,46.0227849,8.7848557
012,Duno,066,D385,21030,6067,2.4939,45.9140695,8.7385415
012,Fagnano Olona,067,D467,21054,12433,8.6812,45.6696083,8.8741081
012,Ferno,068,D543,21010,444,8.6342,45.6102761,8.7588499
012,Ferrera di Varese,069,D551,21030,700,1.5059,45.9323411,8.7881832
012,Gallarate,070,D869,21013,52452,20.9848,45.6601911,8.7932992
012,Galliate Lombardo,071,D871,21020,989,3.2748,45.7863017,8.7685334
012,Gavirate,072,D946,21026,9136,12.0021,45.8411429,8.724771
012,Gazzada Schianno,073,D951,21045,4559,4.8412,45.7802605,8.8255835
012,Gemonio,074,D963,21036,2847,3.6742,45.8774311,8.6788489
012,Gerenzano,075,D981,21040,10751,9.7868,45.6384452,8.9985806
012,Germignaga,076,D987,21010,3743,4.682,45.9934149,8.7268042
012,Golasecca,077,E079,21010,2654,7.4363,45.6968656,8.6550979
012,Gorla Maggiore,078,E101,21050,4872,5.158,45.6660994,8.8935248
012,Gorla Minore,079,E102,21055,8094,7.4805,45.6432687,8.8965086
012,Gornate Olona,080,E104,21040,2179,4.6957,45.7377585,8.8591011
012,Grantola,081,E144,21030,1237,2.0205,45.9496193,8.7707666
012,Inarzo,082,E292,21020,1061,2.4339,45.7867861,8.7364261
012,Induno Olona,083,E299,21056,10278,12.3656,45.8519775,8.8385657
012,Ispra,084,E367,21027,5297,15.9091,45.8161833,8.6102656
012,Jerago con Orago,085,E386,21040,5273,3.8742,45.7052582,8.7925382
012,Lavena Ponte Tresa,086,E494,21037,5631,4.4421,45.9609377,8.8610751
012,Laveno-Mombello,087,E496,21014,8324,23.53,45.9157982,8.6153561
012,Leggiuno,088,E510,21038,3618,13.1891,45.8756383,8.6193311
012,Lonate Ceppino,089,E665,21050,5033,4.8299,45.7052966,8.8762724
012,Lonate Pozzolo,090,E666,21015,11366,29.2578,45.6000663,8.7523738
012,Lozza,091,E707,21040,1203,1.7099,45.7754898,8.8570558
012,Luino,092,E734,21016,14128,20.9338,46.0025042,8.7424293
012,Luvinate,093,E769,21020,1310,4.0713,45.8395657,8.7724643
012,Malnate,096,E863,21046,16347,9.0011,45.7995364,8.8811109
012,Marchirolo,097,E929,21030,3512,5.4904,45.9516011,8.8357696
012,Marnate,098,E965,21050,8032,4.8464,45.6284846,8.9038706
012,Marzio,099,F002,21030,310,1.858,45.9378545,8.8577694
012,Masciago Primo,100,F007,21030,303,1.8082,45.9164334,8.7808034
012,Mercallo,101,F134,21020,1797,5.4817,45.7467346,8.6721033
012,Mesenzana,102,F154,21030,1656,4.956,45.947031,8.7588133
012,Montegrino Valtravaglia,103,F526,21010,1491,10.0593,45.9734668,8.7681214
012,Monvalle,104,F703,21020,1939,4.5407,45.857604,8.6320465
012,Morazzone,105,F711,21040,4278,5.6024,45.7691712,8.8293743
012,Mornago,106,F736,21020,4926,12.2357,45.7476032,8.7523972
012,Oggiona con Santo Stefano,107,G008,21040,4319,2.7614,45.6973111,8.8184658
012,Olgiate Olona,108,G028,21057,12599,7.2066,45.6277727,8.8907926
012,Origgio,109,G103,21040,7939,7.9148,45.5996387,9.0178211
012,Orino,110,G105,21030,5177,3.7246,45.8818011,8.7129266
012,Porto Ceresio,113,G906,21050,2838,5.3374,45.904029,8.9062794
012,Porto Valtravaglia,114,G907,21010,2266,16.3581,45.960834,8.6803437
012,Rancio Valcuvia,115,H173,21030,906,4.4844,45.9163377,8.770196
012,Ranco,116,H174,21020,400,6.763,45.7984649,8.5747294
012,Saltrio,117,H723,21050,2987,3.439,45.8735712,8.9243819
012,Samarate,118,H736,21017,16037,16.0203,45.630936,8.7825987
012,Saronno,119,I441,21047,38582,11.0575,45.6237471,9.0364046
012,Sesto Calende,120,I688,21018,10969,25.0378,45.7238026,8.6316423
012,Solbiate Arno,121,I793,21048,4021,3.0257,45.7205781,8.813467
012,Solbiate Olona,122,I794,21058,5359,4.9314,45.6536043,8.8873411
012,Somma Lombardo,123,I819,21019,17749,30.505,45.6837851,8.7043524
012,Sumirago,124,L003,21040,5974,11.7456,45.7402939,8.7793726
012,Taino,125,L032,21020,3621,7.6311,45.7649981,8.61659
012,Ternate,126,L115,21020,2485,4.6947,45.7823885,8.6947981
012,Tradate,127,L319,21049,18834,21.4984,45.7137688,8.9056948
012,Travedona-Monate,128,L342,21028,3949,9.5967,45.8057153,8.6772608
012,Tronzano Lago Maggiore,129,A705,21010,225,11.0613,46.0914805,8.7355186
012,Uboldo,130,L480,21040,10719,10.7362,45.6107202,9.0030687
012,Valganna,131,L577,21039,1595,12.4185,45.9027787,8.8239474
012,Varano Borghi,132,L671,21020,2455,3.3172,45.7778003,8.7019374
012,Varese,133,L682,21100,5652,54.8393,45.8170272,8.8228683
012,Vedano Olona,134,L703,21040,7281,7.0849,45.7767219,8.8863565
012,Venegono Inferiore,136,L733,21040,5952,5.8788,45.7358888,8.899433
012,Venegono Superiore,137,L734,21040,7257,6.7338,45.7491339,8.9017164
012,Vergiate,138,L765,21029,8652,21.7832,45.7245445,8.6954015
012,Viggiù,139,L876,21059,5167,9.2626,45.872022,8.9070404
012,Vizzola Ticino,140,M101,21010,586,7.6057,45.6312425,8.6850507
012,Sangiano,141,H872,21038,1459,2.2207,45.8763025,8.6317904
012,Maccagno con Pino e Veddasca,142,M339,21061,2403,41.9564,46.072445,8.7658256
012,Cadrezzate con Osmate,143,M425,21062,2651,8.2455,45.791459,8.6480889
012,Bardello con Malgesso e Bregano,144,M433,21020,3634,7.5807,45.8267044,8.684771
013,Albavilla,003,A143,22031,6360,10.3792,45.8011049,9.1893001
013,Albese con Cassano,004,A153,22032,4189,7.9506,45.7954437,9.1647435
013,Albiolo,005,A164,22070,2725,2.8386,45.8068111,8.9373625
013,Alserio,006,A224,22040,1303,1.9921,45.7786987,9.1983729
013,Alzate Brianza,007,A249,22040,4842,7.5833,45.7669897,9.1820258
013,Anzano del Parco,009,A319,22040,1755,3.245,45.7708742,9.1987596
013,Appiano Gentile,010,A333,22070,7685,12.7689,45.7350135,8.9794917
013,Argegno,011,A391,22010,679,4.1121,45.9450958,9.1274029
013,Arosio,012,A430,22060,5114,2.6314,45.7166563,9.2076673
013,Asso,013,A476,22033,32383,6.5106,45.8616663,9.2694189
013,Barni,015,A670,22030,559,5.7157,45.9108874,9.2639669
013,Bene Lario,021,A778,22010,330,5.5854,46.0286387,9.1836036
013,Beregazzo con Figliaro,022,A791,22070,2794,3.8086,45.7758893,8.9508768
013,Binago,023,A870,22070,4824,7.1195,45.7846959,8.9225656
013,Bizzarone,024,A898,22020,1725,2.6704,45.8350499,8.9459647
013,Blessagno,025,A904,22028,290,3.5601,45.9599064,9.097391
013,Blevio,026,A905,22020,1091,5.4718,45.8406517,9.1048648
013,Bregnano,028,B134,22070,6384,6.1608,45.6989713,9.0625241
013,Brenna,029,B144,22040,2177,4.8501,45.7416511,9.187753
013,Brienno,030,B172,22010,335,8.972,45.9117541,9.1313905
013,Brunate,032,B218,22034,1623,2.0345,45.8197822,9.0964159
013,Bulgarograsso,034,B262,22070,4002,3.7733,45.7481439,9.0110125
013,Cabiate,035,B313,22060,7405,3.1783,45.6732062,9.1667028
013,Cadorago,036,B346,22071,7931,7.1486,45.7239128,9.0337473
013,Caglio,037,B355,22030,475,6.5169,45.8705835,9.2363157
013,Campione d'Italia,040,B513,22061,1748,2.6757,45.9700921,8.970754
013,Cantù,041,B639,22063,39382,23.2534,45.7393958,9.1265807
013,Canzo,042,B641,22035,5111,11.1053,45.8500484,9.2735022
013,Capiago Intimiano,043,B653,22070,5474,5.7174,45.7721325,9.1243087
013,Carate Urio,044,B730,22010,1101,6.9442,45.8719776,9.122397
013,Carbonate,045,B742,22070,2896,4.9866,45.6850697,8.9404021
013,Carimate,046,B778,22060,4429,5.1718,45.7026944,9.115251
013,Carlazzo,047,B785,22010,3144,12.7329,46.0492099,9.1564941
013,Carugo,048,B851,22060,6569,4.2069,45.709978,9.1891544
013,Caslino d'Erba,052,B974,22030,1644,6.8896,45.8375713,9.2271218
013,Casnate con Bernate,053,B977,22070,5011,5.2299,45.7568018,9.0746556
013,Cassina Rizzardi,055,C020,22070,3294,3.5074,45.7510493,9.0303899
013,Castelmarte,058,C206,22030,1265,1.9722,45.8325195,9.2333598
013,Castelnuovo Bozzente,059,C220,22070,903,3.622,45.7634608,8.9413797
013,Cavargna,062,C381,22010,189,14.9748,46.0906899,9.1120259
013,Cerano d'Intelvi,063,C482,22020,572,5.5479,45.9444763,9.087643
013,Cermenate,064,C516,22072,9274,8.1833,45.6985756,9.0826873
013,Cernobbio,065,C520,22012,6402,12.2813,45.8396353,9.0743534
013,Cirimido,068,C724,22070,2121,2.6263,45.6988224,9.0110864
013,Claino con Osteno,071,C787,22010,539,12.9034,46.0069312,9.0843408
013,Colonno,074,C902,22010,447,5.6119,45.9577463,9.1540999
013,Como,075,C933,22100,5388,37.1193,45.8100015,9.0851596
013,Corrido,077,D041,22010,847,6.1917,46.0474332,9.1370139
013,Cremia,083,D147,22010,691,10.1382,46.0858119,9.2707258
013,Cucciago,084,D196,22060,3442,4.9305,45.7388979,9.0915033
013,Cusino,085,D232,22010,218,9.6466,46.0743922,9.1527515
013,Dizzasco,087,D310,22020,636,3.6082,45.9438846,9.1014646
013,Domaso,089,D329,22013,1451,6.2764,46.1519614,9.3284669
013,Dongo,090,D341,22014,3233,7.0436,46.123042,9.2794985
013,Dosso del Liro,092,D355,22010,236,23.4878,46.1636987,9.2736963
013,Erba,095,D416,22036,16091,17.8017,45.8119454,9.2231832
013,Eupilio,097,D445,22030,2575,6.9373,45.8169334,9.2677027
013,Faggeto Lario,098,D462,22020,1148,17.523,45.8580908,9.1598377
013,Faloppio,099,D482,22020,4831,4.1414,45.8121849,8.9632013
013,Fenegrò,100,D531,22070,3230,5.3603,45.7016083,9.0027309
013,Figino Serenza,101,D579,22060,4968,4.9561,45.7116402,9.1271939
013,Fino Mornasco,102,D605,22073,9829,7.2966,45.7461259,9.0485789
013,Garzeno,106,D930,22010,676,28.7378,46.1341057,9.2498564
013,Gera Lario,107,D974,22010,1054,7.179,46.1706407,9.371102
013,Grandate,110,E139,22070,2814,2.8171,45.7739035,9.0583
013,Grandola ed Uniti,111,E141,22010,1317,16.8991,46.0313309,9.2071327
013,Griante,113,E172,22011,591,6.5458,45.9969568,9.2350095
013,Guanzate,114,E235,22070,5795,6.9053,45.7243223,9.0109487
013,Inverigo,118,E309,22044,9117,9.9235,45.7329364,9.2149353
013,Laglio,119,E405,22010,899,6.1961,45.8835331,9.1400701
013,Laino,120,E416,22020,544,6.6825,45.98331,9.0738553
013,Lambrugo,121,E428,22045,2523,1.8412,45.7584749,9.2415145
013,Lasnigo,123,E462,22030,456,5.5255,45.880698,9.2640702
013,Lezzeno,126,E569,22025,1962,20.7039,45.9454753,9.1910858
013,Limido Comasco,128,E593,22070,3864,4.5636,45.6897117,8.9827078
013,Lipomo,129,E607,22030,5985,2.3036,45.79481,9.1214792
013,Livo,130,E623,22010,781,33.1337,46.168923,9.3041966
013,Locate Varesino,131,E638,22070,4303,6.0129,45.6903606,8.9308176
013,Lomazzo,133,E659,22074,9944,9.477,45.6990334,9.0401493
013,Longone al Segrino,134,E679,22030,1947,1.6045,45.8172582,9.2509977
013,Luisago,135,E735,22070,2730,2.1614,45.7612267,9.0434567
013,Lurago d'Erba,136,E749,22040,5405,4.6778,45.7534946,9.2247363
013,Lurago Marinone,137,E750,22070,2553,3.8489,45.7078155,8.9839463
013,Lurate Caccivio,138,E753,22075,9708,5.9357,45.7655639,9.0006797
013,Magreglio,139,E830,22030,687,3.0815,45.9200358,9.2618948
013,Mariano Comense,143,E951,22066,25182,13.8027,45.6971062,9.182511
013,Maslianico,144,F017,22026,3131,1.2884,45.8425747,9.0484652
013,Menaggio,145,F120,22017,3035,11.7701,46.0211166,9.2389108
